stationId,addressType,addressName,addressNumber,latitude,longitude,altitude,districtNumber,districtName,neighborhoodNumber,neighborhoodName,postCode,capacity
ab90b530,GRAN VIA,CORTS CATALANES,760,41.3979779,2.1801069,16,02,Eixample,05,el Fort Pienc,8013,46
49db2800,C/,ROGER DE FLOR,126,41.3954877,2.1771985,17,02,Eixample,05,el Fort Pienc,8013,28
015dbfda,C/,NÀPOLS,82,41.3941557,2.1813305,11,02,Eixample,05,el Fort Pienc,8013,27
13c5ac4e,C/,RIBES,13,41.3933173,2.1812483,8,02,Eixample,05,el Fort Pienc,8013,21
3c63118f,PG.,LLUIS COMPANYS,11,41.3911035,2.1801763,7,01,CiutatVella,04,"Sant Pere, Santa Caterina i la Ribera",8018,39
b624d018,PG.,LLUIS COMPANYS,18,41.3914292,2.1805685,10,01,CiutatVella,04,"Sant Pere, Santa Caterina i la Ribera",8018,39
70549290,PG.,PUJADES,1,41.388885,2.18329,6,01,CiutatVella,04,"Sant Pere, Santa Caterina i la Ribera",8003,27
a403c13c,PG.,PUJADES,2,41.389135,2.183489,6,01,CiutatVella,04,"Sant Pere, Santa Caterina i la Ribera",8003,27
3fe09388,AV.,MARQUÉS DE L'ARGENTERA,13,41.384546,2.184922,5,01,CiutatVella,04,"Sant Pere, Santa Caterina i la Ribera",8003,27
11d8ae98,C/,60,25,41.3467746,2.1436235,NA,03,Sants-Montjuïc,12,la Marina del Prat Vermell,8040,43
7d6b25e7,PG.,MARITIM,11,41.382398,2.194294,NA,01,CiutatVella,03,la Barceloneta,8003,35
df319bca,PG.,MARITIM,23,41.3833653,2.1946255,7,01,CiutatVella,03,la Barceloneta,8003,26
b23b9e10,C/,MARINA,25,41.388143,2.195551,7,01,CiutatVella,67,la Vila Olímpica del Poblenou,8005,53
7235c23a,AV.,MARQUÉS DE  L'ARGENTERA,15,41.384844,2.185085,5,01,CiutatVella,04,"Sant Pere, Santa Caterina i la Ribera",8003,27
483222b7,C/,DIPUTACIÓ,272,41.3916117009235,2.16890319787512,25,02,Eixample,07,la Dreta de l'Eixample,8009,27
5dfbf689,AV.,MERIDIANA,47,41.3982615,2.1866517,14,02,Eixample,66,el Parc i la Llacuna del Poblenou,8013,42
cf1dc149,C/,ROSSELLÓ,453,41.4060589,2.1740472,38,02,Eixample,06,la Sagrada Família,8025,27
5b468529,C/,ROSSELLÓ,354,41.4031491,2.1707947,40,02,Eixample,06,la Sagrada Família,8025,30
e8f8643b,C/,CARTAGENA,308,41.410314,2.1757334,46,02,Eixample,06,la Sagrada Família,8025,18
741bd1f5,C/,SANT ANTONI MARIA CLARET,214,41.4108439,2.1740575,52,02,Eixample,06,la Sagrada Família,8025,21
1e1bcac4,C/,SARDENYA,292,41.4016969,2.175767,28,02,Eixample,06,la Sagrada Família,8013,19
4db182e1,C/,BRUC,45,41.3924661,2.1717397,21,02,Eixample,07,la Dreta de l'Eixample,8010,27
59e53c85,C/,MARINA,199,41.4005784,2.1788855,23,02,Eixample,05,el Fort Pienc,8013,39
f375dee2,C/,BRUC,102,41.3954041,2.1681961,29,02,Eixample,07,la Dreta de l'Eixample,8009,21
1fa7409b,C/,DOS DE MAIG,230,41.4071692,2.1820722,22,10,SantMartí,64,el Camp de l'Arpa del Clot,8013,18
26308e35,C/,PROVENÇA,322,41.3967524,2.1646338,38,02,Eixample,07,la Dreta de l'Eixample,8037,17
1b1ed1c0,C/,SARDENYA,362,41.4055143,2.1706498,46,02,Eixample,06,la Sagrada Família,8025,22
ea804678,C/,PROVENÇA,388,41.401061,2.169941,34,02,Eixample,07,la Dreta de l'Eixample,8025,23
f9b9915d,C/,CASTILLEJOS,184,41.4021805,2.1829894,13,02,Eixample,05,el Fort Pienc,8013,29
b4ae2d58,PL.,DEL MAR,,41.3748001,2.1889045,4,01,CiutatVella,03,la Barceloneta,8003,18
638422a4,,LA BARCELONETA (CN BARCELONETA),,41.3736911,2.188928,4,01,CiutatVella,03,la Barceloneta,8003,35
b5ce5ab4,C/,PONTEVEDRA,58,41.37686,2.19067,4,01,CiutatVella,03,la Barceloneta,8003,21
6a715bb4,C/,SANT PERE MÉS ALT,4,41.3871079,2.1753364,9,01,CiutatVella,04,"Sant Pere, Santa Caterina i la Ribera",8003,21
12bf7b51,C/,SANT RAMON DE PENYAFORT,1,41.4134833,2.2206913,5,10,SantMartí,70,el Besòs i el Maresme,8930,54
0c4062fc,AV.,DE LA CATEDRAL,6,41.3850616,2.1766834,8,01,CiutatVella,02,el Barri Gòtic,8002,21
20a36dfd,PG.,DE COLOM - VIA LAIETANA,,41.380624,2.1820675,4,01,CiutatVella,04,"Sant Pere, Santa Caterina i la Ribera",8002,24
3ac8723b,PL.,PAU VILA (D),,41.381046,2.186576,4,01,CiutatVella,03,la Barceloneta,8039,44
74a9302a,C/,DOCTOR AIGUADER,2,41.382335,2.187093,6,01,CiutatVella,03,la Barceloneta,8039,18
c58c4e27,PL.,POETA BOSCÀ,,41.379326,2.189906,5,01,CiutatVella,03,la Barceloneta,8003,25
42e1fb4c,C/,CIUTAT DE GRANADA,168,41.404511,2.189881,4,10,SantMartí,66,el Parc i la Llacuna del Poblenou,8018,24
40e8141c,C/,CLOT,1,41.4063864,2.1874404,13,10,SantMartí,65,el Clot,8018,27
7d244e05,AV.,MERIDIANA,71,41.4014737309554,2.1867650955646,NA,02,Eixample,05,el Fort Pienc,8018,21
aabf65e3,C/,SARDENYA,66,41.391466,2.189371,5,10,SantMartí,67,la Vila Olímpica del Poblenou,8005,27
c48e7eae,C/,VILLENA,1,41.3886065969256,2.19219450845947,7,10,SantMartí,67,la Vila Olímpica del Poblenou,8005,54
0f33673b,C/,RAMON TRIAS FARGAS,21,41.3902194,2.1904003,5,10,SantMartí,67,la Vila Olímpica del Poblenou,8005,47
52e8a987,AV.,MERIDIANA,40,41.3960652,2.1871959,11,10,SantMartí,66,el Parc i la Llacuna del Poblenou,8018,21
1ef14eda,C/,ROSA SENSAT,20,41.3910756,2.1965766,5,10,SantMartí,67,la Vila Olímpica del Poblenou,8005,21
be723ba8,AV.,PARAL.LEL,54,41.3751145,2.1709386,8,01,CiutatVella,01,el Raval,8004,18
bbe3c6d1,PL.,VICENÇ MARTORELL,,41.3842634,2.1692556,12,01,CiutatVella,01,el Raval,8001,20
7b1dc96e,PL.,SANT MIQUEL,4,41.381708,2.177292,11,01,CiutatVella,02,el Barri Gòtic,8002,32
f302efe0,PL.,CARLES PI I SUNYER,,41.385086,2.174016,10,01,CiutatVella,02,el Barri Gòtic,8002,21
c07dc12d,C/,SANT OLEGUER,2,41.3775319,2.1707321,6,01,CiutatVella,01,el Raval,8001,19
3af62db1,,LA RAMBLA,56,41.380195,2.1744801,7.38,01,CiutatVella,02,el Barri Gòtic,8002,27
2252546b,,PORTAL DE SANTA MADRONA,2,41.3770715,2.1758261,5,01,CiutatVella,01,el Raval,8001,27
8879127c,,LA RAMBLA,1,41.376326,2.176971,4,01,CiutatVella,02,el Barri Gòtic,8002,21
c27a4111,C/,VALLDONZELLA,2,41.3845757386794,2.16626169311522,NA,01,CiutatVella,01,el Raval,8001,21
89301927,C/,AGUSTÍ DURAN I SANPERE,1,41.3813815397747,2.16807754829512,NA,01,CiutatVella,01,el Raval,8001,22
49a8a25c,RBLA.,CATALUNYA,47,41.3902625,2.164035,27,02,Eixample,07,la Dreta de l'Eixample,8007,27
972c53af,C/,ARAGÓ,288,41.39352,2.166797,26,02,Eixample,07,la Dreta de l'Eixample,8009,26
0aab8b80,PL.,CATALUNYA,5,41.387235,2.168819,19,02,Eixample,07,la Dreta de l'Eixample,8002,25
8be9542b,PL.,CATALUNYA,7,41.386543,2.169427,19,02,Eixample,07,la Dreta de l'Eixample,8002,27
ffd41ed3,PL.,CATALUNYA,10,41.387493,2.1690686,21,02,Eixample,07,la Dreta de l'Eixample,8002,21
11f4e9a5,PL.,CATALUNYA,10,41.387696,2.1696543,20,02,Eixample,07,la Dreta de l'Eixample,8002,21
05821a7f,GRAN VIA,DE LES CORTS CATALANES,609,41.3893222,2.1678388,23,02,Eixample,07,la Dreta de l'Eixample,8007,16
59b25985,C/,ROCAFORT,214,41.3852864,2.1454802,37,02,Eixample,09,la Nova Esquerra de l'Eixample,8029,24
2702c1a9,RAMBLA,CATALUNYA,133,41.3953894,2.1572953,44,02,Eixample,07,la Dreta de l'Eixample,8008,27
353044ad,CARRER,DE LA MARINA,25,41.388507,2.195073,7,01,CiutatVella,67,la Vila Olímpica del Poblenou,8005,42
b5242993,C/,COMTE URGELL,23,41.380393,2.1606506,15,02,Eixample,10,Sant Antoni,8011,27
0ff9e80f,C/,FLORIDABLANCA,145,41.3819459,2.1629146,16,02,Eixample,10,Sant Antoni,8011,27
72d1b532,C/,PROVENÇA,215,41.3927771,2.1586273,37,02,Eixample,07,la Dreta de l'Eixample,8008,27
ae210a2d,C/,ENRIC GRANADOS,93,41.392135,2.1563542,39,02,Eixample,08,l'Antiga Esquerra de l'Eixample,8008,26
4323b953,AV.,JOSEP TARRADELLAS,133,41.3900085,2.1432105,47,02,Eixample,19,les Corts,8029,15
a7c1bce6,AV.,JOSEP TARRADELLAS,58,41.385004,2.1429115,40,02,Eixample,09,la Nova Esquerra de l'Eixample,8029,21
633f9386,C/,CÒRSEGA,216,41.3917666,2.1532163,40,02,Eixample,08,l'Antiga Esquerra de l'Eixample,8036,32
7d7857b6,AV.,FRANCESC CAMBÓ,10,41.3855644,2.1773214,8,01,CiutatVella,04,"Sant Pere, Santa Caterina i la Ribera",8003,25
d54e155b,PL.,UNIVERSITAT,,41.3856474,2.1634306,21,02,Eixample,10,Sant Antoni,8011,27
53d58fe0,PL.,UNIVERSITAT,,41.385503,2.1634768,21,02,Eixample,10,Sant Antoni,8007,24
8e8dfe64,C/,ENRIC  GRANADOS,35,41.389668,2.1599078,31,02,Eixample,08,l'Antiga Esquerra de l'Eixample,8007,25
e9ed6440,C/,VILAMARÍ,61,41.3790718,2.1490553,24,02,Eixample,09,la Nova Esquerra de l'Eixample,8015,20
7202c323,C/,CALÀBRIA,112,41.3803180599865,2.1544371248114,20,02,Eixample,09,la Nova Esquerra de l'Eixample,8015,40
dd61312e,C/,CALABRIA,158,41.3821658,2.1520645,25,02,Eixample,09,la Nova Esquerra de l'Eixample,8015,23
e4763d79,C/,DEL COMTE D'URGELL,75,41.3830299,2.1571646,20,02,Eixample,09,la Nova Esquerra de l'Eixample,8011,27
56e4c619,AV.,PARAL·LEL,146,41.3751852,2.1592394,15,02,Eixample,10,Sant Antoni,8015,40
9c57c69d,C/,VILADOMAT,2,41.3755747,2.1629349,12,02,Eixample,10,Sant Antoni,8015,27
21f7c8c5,C/,LONDRES,101,41.3936144,2.1507739,45,02,Eixample,08,l'Antiga Esquerra de l'Eixample,8036,20
2265fc92,C/,ROSSELLÓ,101,41.3871904,2.149131,36,02,Eixample,09,la Nova Esquerra de l'Eixample,8036,23
d2753dbb,C/,ROSSELLÓ,108,41.388296,2.150878,36,02,Eixample,08,l'Antiga Esquerra de l'Eixample,8036,17
a55ac49c,C/,COMTE D'URGELL,43,41.3812504,2.1594741,16,02,Eixample,10,Sant Antoni,8011,35
698dcb5a,C,PROVENÇA,241,41.3938861,2.1601641,37,02,Eixample,07,la Dreta de l'Eixample,8008,18
9f93d582,GRAN  VIA,DE LES CORTS CATALANES,375,41.3757914,2.1499102,26,02,Eixample,10,Sant Antoni,8015,47
8cfb7383,C/,TARRAGONA,103,41.3763948,2.1473272,28,03,Sants-Montjuïc,15,Hostafrancs,8014,33
544e6387,GRAN VIA,DE LES CORTS CATALANES,368,41.3741093,2.1481993,24,03,Sants-Montjuïc,15,Hostafrancs,8010,21
ffae33c3,C/,TARRAGONA,141,41.3779613,2.1450491,29,03,Sants-Montjuïc,15,Hostafrancs,8014,21
17b00931,C/,VIRIAT,43,41.3806074,2.1408633,31,03,Sants-Montjuïc,18,Sants,8014,21
dd389f18,C/,VIRIAT,53,41.3808222,2.141539,30,03,Sants-Montjuïc,18,Sants,8014,21
dfc4f79f,C/,TARRAGONA,159,41.379363,2.143868,29,03,Sants-Montjuïc,15,Hostafrancs,8014,22
aec247fc,AV.,DIAGONAL,602,41.392878,2.143411,53,05,Sarrià-StGervasi,26,Sant Gervasi - Galvany,8021,23
70369a38,AV.,DIAGONAL,612,41.392567,2.1422174,54,05,Sarrià-StGervasi,26,Sant Gervasi - Galvany,8021,24
33c00b2e,C/,ARAGÓ,629,41.410098,2.1884487,16,10,SantMartí,65,el Clot,8026,21
c957ae93,C/,VALÈNCIA,621,41.4108005,2.1872438,16,10,SantMartí,65,el Clot,8026,25
980151bb,,RDA. DE SANT PERE,26,41.389492,2.17425,15,02,Eixample,07,la Dreta de l'Eixample,8010,21
26d6be25,PL,JOANIC - C,59,41.4055198,2.1622548,56,06,Gràcia,31,la Vila de Gràcia,8024,20
d39f0332,,TRAV. DE GRÀCIA,92,41.3982304,2.1531031,56,05,Sarrià-StGervasi,26,Sant Gervasi - Galvany,8006,20
6f030361,C,INDÚSTRIA,10,41.4022081,2.1649035,45,06,Gràcia,32,el Camp d'en Grassot i Gràcia Nova,8037,21
80374b39,C/,LONDRES,53,41.3912605,2.1476308,43,02,Eixample,08,l'Antiga Esquerra de l'Eixample,8036,24
abf7ceaa,AV.,ROMA,136,41.3852585,2.155089,25,02,Eixample,08,l'Antiga Esquerra de l'Eixample,8011,17
968b111d,C/,ARAGÓ 147,,41.3847528,2.1546746,21,02,Eixample,09,la Nova Esquerra de l'Eixample,8015,19
c83ccb58,C/,FLORIDABLANCA,49,41.3776721,2.157233,13,02,Eixample,10,Sant Antoni,8015,20
7b24c5b1,,RONDA DE SANT PAU,51,41.3773113,2.1646742,11,02,Eixample,10,Sant Antoni,8015,34
96fd9a39,PL.,JEAN GENET,1,41.376735,2.1740082,5,01,CiutatVella,01,el Raval,8001,20
d7ea0124,AV.,MARQUÉS DE L'ARGENTERA,3,41.383597,2.184171,4,01,CiutatVella,04,"Sant Pere, Santa Caterina i la Ribera",8003,21
20f3504d,C/,DEL DR. AIGUADER,72,41.3838369,2.1914756,5,01,CiutatVella,03,la Barceloneta,8003,35
a793d735,C/,ROSA SENSAT,12,41.3906051,2.1972309,5,10,SantMartí,67,la Vila Olímpica del Poblenou,8005,21
d515c6f6,C/,PUJADES,3,41.39212,2.1874966,6,10,SantMartí,66,el Parc i la Llacuna del Poblenou,8018,27
e29c1879,C/,SARDENYA,178,41.3967169,2.1825085,12,02,Eixample,05,el Fort Pienc,8013,39
ff8eb3d7,C/,LEPANT,278,41.4047056,2.1765126,28,02,Eixample,06,la Sagrada Família,8013,21
d6b079b6,C/,CASTILLEJOS,258,41.4064529,2.1785364,28,02,Eixample,06,la Sagrada Família,8013,21
f16dda33,C/,NÀPOLS,344,41.4054458,2.1663172,54,06,Gràcia,32,el Camp d'en Grassot i Gràcia Nova,8025,33
7864a737,C/,PROVENÇA,317,41.3988184485363,2.16673522491668,34,02,Eixample,07,la Dreta de l'Eixample,8037,21
4c7e2f31,C/,NOVA  BOCANA,,41.3702483,2.1878126,3,01,CiutatVella,03,la Barceloneta,8039,30
12be2c02,PG.,MARíTIM,31,41.3834753,2.194735,7,01,CiutatVella,03,la Barceloneta,8003,29
073fc27d,PG.,DE COLOM,,41.380628,2.1822815,4,01,CiutatVella,02,el Barri Gòtic,8002,23
d9baa38b,C/,ARAGÓ,659,41.4120681,2.1907524,16,10,SantMartí,65,el Clot,8026,27
e3c0b638,RAMBLA,DE GUIPÚSCOA,43,41.4158412,2.1959771,10,10,SantMartí,72,Sant Martí de Provençals,8020,43
3936acf3,C/,MANSO,46,41.377046,2.16113608,13,02,Eixample,10,Sant Antoni,8015,23
6f91a12c,RAMBLA,DE GUIPÚSCOA,103,41.4200135,2.2016699,8,10,SantMartí,73,la Verneda i la Pau,8020,24
9c60c4dd,RAMBLA,DE GUIPÚSCOA,158,41.4227912,2.2060317,11,10,SantMartí,73,la Verneda i la Pau,8020,29
455f40b2,,VALENTÍ ALMIRALL,,41.4084796,2.192042,6,10,SantMartí,65,el Clot,8018,27
f802dc20,GRAN VIA,DE LES CORTS CATALANES,902,41.4075013,2.1930174,6,10,SantMartí,71,Provençals del Poblenou,8018,16
f1c9ed81,C/,BAC DE RODA,157,41.4113024,2.1987258,6,10,SantMartí,71,Provençals del Poblenou,8018,21
0895d88e,GRAN VIA,DE LES CORTS CATALANES,981,41.4120452,2.1972673,8,10,SantMartí,72,Sant Martí de Provençals,8018,21
b73ebf04,GRAN VIA,DE LES CORTS CATALANES,1062,41.4139298,2.2017955,8,10,SantMartí,71,Provençals del Poblenou,8020,31
2f8cf84f,GRAN VIA,DE LES CORTS CATALANES,1041,41.4145805,2.2008139,7,10,SantMartí,72,Sant Martí de Provençals,8020,25
c2e6b9a2,GRAN VIA,DE LES CORTS CATALANES,1118,41.4167933,2.2058345,7,10,SantMartí,71,Provençals del Poblenou,8020,21
9cf2763b,GRAN VIA,DE LES CORTS CATALANES,1131,41.4183999,2.2058133,7,10,SantMartí,73,la Verneda i la Pau,8020,35
e595466b,C/,VILADOMAT,122,41.3808772,2.1559939,19,02,Eixample,09,la Nova Esquerra de l'Eixample,8015,27
30e1dfa7,C/,BILBAO,174,41.4090202,2.1954152,7,10,SantMartí,71,Provençals del Poblenou,8018,31
c96dc807,C/,SANCHO DE ÁVILA,104,41.4003793,2.1924144,4,10,SantMartí,66,el Parc i la Llacuna del Poblenou,8018,52
d84e9b91,C/,SANCHO DE ÁVILA,170,41.4027907,2.1956161,4,10,SantMartí,68,el Poblenou,8018,28
a4845920,C/,CASTELLA,28,41.4056269,2.1977119,4,10,SantMartí,68,el Poblenou,8018,27
af353f89,C/,PERE IV,301,41.4093405,2.2024461,4,10,SantMartí,71,Provençals del Poblenou,8020,27
bb854058,C/,PERE IV,488,41.4148983,2.207186,4,10,SantMartí,71,Provençals del Poblenou,8019,24
19ecf1b3,RAMBLA,PRIM,79,41.416043,2.2124993,5,10,SantMartí,70,el Besòs i el Maresme,8019,33
c743b830,,RONDA SANT PAU,79,41.3783467,2.1633139,12,02,Eixample,10,Sant Antoni,8015,27
7e6a316b,C/,PUJADES,57,41.3958685,2.192952,4,10,SantMartí,66,el Parc i la Llacuna del Poblenou,8019,26
c3c45841,C/,ESPRONCEDA,124,41.4065912,2.203028,4,10,SantMartí,68,el Poblenou,8005,27
6963b90a,C/,PALLARS,182,41.4003471,2.1969105,3,10,SantMartí,68,el Poblenou,8005,31
e94d3b05,C/,PUJADES,121,41.3993329,2.1974184,3,10,SantMartí,68,el Poblenou,8005,39
c51d6dbf,C/,PUJADES,173,41.4018686,2.20077,3,10,SantMartí,68,el Poblenou,8005,23
583829d8,C/,PUJADES,191,41.4026275,2.2017694,2,10,SantMartí,68,el Poblenou,8005,32
2b4d593e,C/,PUJADES,311,41.4070139,2.2074469,4,10,SantMartí,69,Diagonal Mar i el Front Marítim del Poblenou,8019,32
1f51f570,C/,SELVA DE MAR,46,41.4091355,2.2088179,4,10,SantMartí,69,Diagonal Mar i el Front Marítim del Poblenou,8019,27
68bbb7d5,C/,LLULL,465,41.4132316,2.2177652,4,10,SantMartí,70,el Besòs i el Maresme,8019,33
696db06a,RAMBLA,DE PRIM,19,41.4116634,2.2183313,4,10,SantMartí,70,el Besòs i el Maresme,8019,31
807b20ca,AV.,DIAGONAL,26,41.4110822,2.2163136,4,10,SantMartí,70,el Besòs i el Maresme,8019,36
9690e588,AV.,D'EDUARD MARISTANY,1,41.4109763,2.2193724,4,10,SantMartí,70,el Besòs i el Maresme,8019,33
f38c7c53,C/,RAMON TURRÓ,91,41.3953011,2.1965965,4,10,SantMartí,67,la Vila Olímpica del Poblenou,8005,27
f4953768,C/,RAMON TURRÓ,292,41.4038559,2.2084257,3,10,SantMartí,69,Diagonal Mar i el Front Marítim del Poblenou,8005,27
14db8335,AV.,ICÀRIA,202,41.3942108,2.2008756,3,10,SantMartí,67,la Vila Olímpica del Poblenou,8005,27
fbc87a4d,C/,INDEPENDÈNCIA,379,41.4118378,2.1778852,46,10,SantMartí,64,el Camp de l'Arpa del Clot,8026,27
80e47065,C/,DEL DOCTOR TRUETA,222,41.3992169,2.2041415,3,10,SantMartí,68,el Poblenou,8005,27
d9c599a5,C/,BILBAO,2,41.4008312,2.206645,3,10,SantMartí,68,el Poblenou,8005,27
c4f1ceef,C/,BAC DE RODA,11,41.4023354,2.2105777,3,10,SantMartí,68,el Poblenou,8005,21
53192d6d,,SELVA DE MAR,,41.4053697,2.2135818,5,10,SantMartí,69,Diagonal Mar i el Front Marítim del Poblenou,8019,27
725dc405,AV.,LITORAL,40,41.3896642,2.1999572,6,10,SantMartí,67,la Vila Olímpica del Poblenou,8005,54
592be830,AV.,LITORAL,172,41.3919877,2.2037136,5,10,SantMartí,67,la Vila Olímpica del Poblenou,8005,54
02ce0817,,LITORAL,84,41.3979002,2.2088454,8,10,SantMartí,68,el Poblenou,8005,26
f79c2028,PG.,DE GARCIA FÀRIA,21,41.400654,2.210191,6,10,SantMartí,69,Diagonal Mar i el Front Marítim del Poblenou,8005,27
2b66e2e3,C/,LLULL,309,41.4065291,2.2091221,4,10,SantMartí,69,Diagonal Mar i el Front Marítim del Poblenou,8019,27
ddb2d6ae,PG.,DE GARCIA FÀRIA,37,41.403216,2.2136,6,10,SantMartí,69,Diagonal Mar i el Front Marítim del Poblenou,8019,31
56289433,C/,ROSSELLÓ,557,41.4110754,2.1809764,33,10,SantMartí,64,el Camp de l'Arpa del Clot,8026,38
5b51310c,PG.,DE GARCIA FÀRIA,85,41.4053649,2.2162094,7,10,SantMartí,69,Diagonal Mar i el Front Marítim del Poblenou,8019,27
a993e28e,GRAN VIA,DE LES CORTS CATALANES,179,41.3675574,2.1388216,14,03,Sants-Montjuïc,16,la Bordeta,8014,50
377d1ee7,C/,SANT PERE D´ABANTO,2,41.371366,2.143565,18,03,Sants-Montjuïc,15,Hostafrancs,8014,33
7c8d7d1b,C/,GAVÀ,1,41.3723682,2.1419494,18,03,Sants-Montjuïc,16,la Bordeta,8014,30
e84d1d51,C/,QUETZAL,22,41.3675438,2.1342316,22,03,Sants-Montjuïc,16,la Bordeta,8014,27
f9f92ef2,,GAVÀ,81,41.3703717,2.1389439,20,03,Sants-Montjuïc,16,la Bordeta,8014,17
51e67e69,,CONSELL DE CENT,6,41.3755503,2.1439036,27,03,Sants-Montjuïc,15,Hostafrancs,8014,26
213ebc2f,C/,DE SANT PAU,89,41.3768806,2.1698206,5,01,CiutatVella,01,el Raval,8001,15
f4d0318a,PG.,SANT ANTONI,,41.3756948,2.1358571,30,03,Sants-Montjuïc,18,Sants,8014,27
f384cc0b,C/,BRUC,130,41.3969839,2.1661852,34,02,Eixample,07,la Dreta de l'Eixample,8037,28
13944e26,AV.,LITORAL,72,41.3961412,2.2078439,6,10,SantMartí,68,el Poblenou,8005,29
419bd071,C/,ENTENÇA,137,41.381951,2.147474,15,02,Eixample,09,la Nova Esquerra de l'Eixample,8015,37
f8772881,C/,JOAN GÜELL,50,41.3786364,2.1335494,33,03,Sants-Montjuïc,18,Sants,8028,21
2240cc14,C/,FÍGOLS,1,41.3812979,2.1289917,41,04,LesCorts,19,les Corts,8028,27
5b831ac9,C/,JOAN GÜELL,98,41.3812001,2.1323612,38,04,LesCorts,19,les Corts,8028,24
781bf0e0,C/,VALLESPIR,130,41.3821371,2.1354149,38,04,LesCorts,19,les Corts,8014,27
efae4db4,C/,BERLÍN,38,41.3832609,2.1392662,38,03,Sants-Montjuïc,18,Sants,8029,27
076721ea,C/,GELABERT,1,41.3871579,2.1410945,47,04,LesCorts,19,les Corts,8029,27
9cf9b4a9,C/,VALLESPIR,194,41.3847113,2.1334379,48,04,LesCorts,19,les Corts,8014,27
d178a64c,C/,MEJÍA LEQUERICA,2,41.3819739,2.1268625,47,04,LesCorts,20,la Maternitat i Sant Ramon,8028,27
7592bf60,C/,JOAN GÜELL,174,41.3839045,2.1312876,47,04,LesCorts,19,les Corts,8028,24
6036a906,C/,NUMÀNCIA,136,41.3878061,2.1344218,55,04,LesCorts,19,les Corts,8029,24
b455fb84,C/,DE LES CORTS,20,41.3854466,2.1288753,52,04,LesCorts,19,les Corts,8028,27
4f40136f,AV.,DIAGONAL,668,41.3887069,2.1285766,64,04,LesCorts,19,les Corts,8034,33
edfb7d6e,AV.,DIAGONAL,672,41.3880355,2.1256248,63,04,LesCorts,21,Pedralbes,8034,33
230975a4,C/,DE CAN SEGALAR,4,41.3879413310938,2.13059591593856,NA,04,LesCorts,19,les Corts,8028,37
977c3a43,AV.,DIAGONAL,650,41.3897943,2.1328634,62,04,LesCorts,19,les Corts,8017,33
85b792eb,AV.,DIAGONAL,634,41.3908477,2.136579,62,04,LesCorts,19,les Corts,8017,25
f1674f10,AV.,DIAGONAL,630,41.3915195,2.1390667,59,05,Sarrià-StGervasi,26,Sant Gervasi - Galvany,8017,33
74ed4c16,C/,DIPUTACIÓ,200,41.3857425,2.1610515,23,02,Eixample,08,l'Antiga Esquerra de l'Eixample,8011,26
b72d451a,C/,VILARDELL,18,41.3745238,2.1422556,22,03,Sants-Montjuïc,15,Hostafrancs,8014,31
79a98f2c,C/,SANCHO DE ÁVILA,60,41.3987543,2.1902116,5,10,SantMartí,66,el Parc i la Llacuna del Poblenou,8018,28
89926791,AV.,SARRIÀ,163,41.3922355,2.1309272,75,04,LesCorts,19,les Corts,8017,24
7091d8f7,C/,SANTA FE DE NOU MÈXIC,2,41.3935816,2.1345892,70,05,Sarrià-StGervasi,24,les Tres Torres,8017,33
f35271d7,C/,JOSÉ DE  AGULLÓ,9,41.3952027,2.1334873,72,05,Sarrià-StGervasi,24,les Tres Torres,8017,25
6d750be0,C/,GANDUXER,29,41.3939378,2.1380304,65,05,Sarrià-StGervasi,26,Sant Gervasi - Galvany,8021,21
1139cdf3,C/,MADRAZO,131,41.3967824,2.1445567,63,05,Sarrià-StGervasi,26,Sant Gervasi - Galvany,8021,27
57d82c81,C/,RECTOR UBACH,24,41.3985735,2.1440826,75,05,Sarrià-StGervasi,26,Sant Gervasi - Galvany,8021,27
9c2dcbe5,C/,CONSELL DE CENT,566,41.4040364,2.183145,17,02,Eixample,06,la Sagrada Família,8013,39
fbf339ba,C/,LAFORJA,74,41.3976165,2.1471724,67,05,Sarrià-StGervasi,26,Sant Gervasi - Galvany,8021,26
cc8f9863,C/,TUSET,19,41.3960982,2.1513154,53,05,Sarrià-StGervasi,26,Sant Gervasi - Galvany,8006,26
f55e0a35,,GRAN DE GRÀCIA,155,41.4025392,2.1524704,68,06,Gràcia,31,la Vila de Gràcia,8012,24
6a115b23,C/,DEL CANÓ,1,41.4013296,2.1574439,58,06,Gràcia,31,la Vila de Gràcia,8012,27
0d3e77b7,C/,DE BONAVISTA,14,41.3983444,2.1598243,48,06,Gràcia,31,la Vila de Gràcia,8012,36
d156b3cc,C,GIRONA,176,41.3999967,2.1644531,40,02,Eixample,07,la Dreta de l'Eixample,8037,26
2c90a617,C/,VILADOMAT,200,41.3848102114671,2.15080712464522,28,02,Eixample,09,la Nova Esquerra de l'Eixample,8029,25
27a0f06d,C/,MONTMANY,1,41.4035608,2.1609345,52,06,Gràcia,31,la Vila de Gràcia,8012,27
2f78a37c,C/,DEL TORRENT DE LES FLORS,102,41.4078456,2.1586704,69,06,Gràcia,31,la Vila de Gràcia,8024,18
cd2b7e19,PL.,DEL NORD,5,41.4068417,2.1558354,73,06,Gràcia,31,la Vila de Gràcia,8024,21
6e445757,C/,DE LA SANTACREU,2,41.4050968,2.1569161,68,06,Gràcia,31,la Vila de Gràcia,8024,28
64668a77,C/,DE NIL FABRA,16,41.4059356,2.1517977,80,06,Gràcia,31,la Vila de Gràcia,8012,26
f347a06d,C/,PAU ALSINA,54,41.4092005,2.16400285,65,06,Gràcia,32,el Camp d'en Grassot i Gràcia Nova,8025,23
46318a9e,C/,PALAUDÀRIES,2,41.3744999703376,2.17302554571611,6,03,Sants-Montjuïc,11,el Poble-sec,8004,27
11eb7079,C/,NOU DE LA RAMBLA,164,41.3719688,2.1667829,21,03,Sants-Montjuïc,11,el Poble-sec,8004,27
f34fe04c,PG.,DE L´EXPOSICIÓ,38,41.371532,2.162203,31,03,Sants-Montjuïc,11,el Poble-sec,8004,27
9c248673,AV.,PARAL.LEL,98,41.3751767,2.1658972,10,02,Eixample,11,el Poble-sec,8015,21
009b21cc,AV.,PARAL.LEL,194,41.3751161,2.1523091,24,02,Eixample,10,Sant Antoni,8015,26
7f297e57,C/,RIUS I TAULET,4,41.3727426,2.1539198,33,03,Sants-Montjuïc,11,el Poble-sec,8004,27
0b4afa42,C/,ESPRONCEDA,298,41.4158807,2.1908473,16,09,SantAndreu,63,Navas,8027,27
92a53d05,C/,INDÚSTRIA,329,41.4172922,2.1844769,31,09,SantAndreu,63,Navas,8027,35
e2c8deed,C/,JOSEP ESTIVILL,32,41.4175595,2.1877153,23,09,SantAndreu,63,Navas,8027,27
86dd3e6b,C/,TEODOR LLORENTE,1,41.419178,2.18018,44,07,Horta-Guinardó,35,el Guinardó,8041,33
cc5f0831,C/,RAMON ALBÓ,1,41.4244527,2.1773157,56,09,SantAndreu,62,el Congrés i els Indians,8027,27
68dca585,C/,ALEXANDRE GALÍ,1,41.4239719,2.1812399,42,09,SantAndreu,62,el Congrés i els Indians,8027,27
4ca0e94b,C/,FELIP II,214,41.426925,2.1786224,44,09,SantAndreu,62,el Congrés i els Indians,8027,27
3dc6c4c6,,LA RAMBLA,101,41.3826647,2.1717083,10,01,CiutatVella,01,el Raval,8002,27
ad986cf9,C/,GARCILASO,77,41.4228449,2.1866363,30,09,SantAndreu,61,la Sagrera,8027,18
3491e643,C/,FELIPE II,112,41.4219291,2.1849107,32,09,SantAndreu,61,la Sagrera,8027,32
6c638a6f,C/,PALÈNCIA,31,41.4182129,2.1904005,18,09,SantAndreu,61,la Sagrera,8027,27
c8cf8a59,C/,ANTILLES,8,41.4250835,2.1872818,21,09,SantAndreu,61,la Sagrera,8027,27
d46b655a,C/,PORTUGAL,3,41.4258248,2.191206,25,09,SantAndreu,61,la Sagrera,8027,27
83370753,C/,CARDENAL TEDESCHINI,13,41.4253643,2.1852073,35,09,SantAndreu,61,la Sagrera,8027,33
6655c847,RAMBLA,DE L'ONZE DE SETEMBRE,31,41.4298991,2.1932159,24,09,SantAndreu,60,Sant Andreu,8030,33
27008256,C/,ONZE DE SETEMBRE,37,41.4298614,2.1922011,25,09,SantAndreu,60,Sant Andreu,8030,27
edc12d5d,RAMBLA,DE L'ONZE DE SETEMBRE,69,41.4299999,2.190246,26,09,SantAndreu,60,Sant Andreu,8030,26
2cfff42a,C/,IRLANDA,34,41.4315,2.18579,30,09,SantAndreu,60,Sant Andreu,8030,15
1a78d37c,C/,MALATS,28,41.4361251,2.1894423,25,09,SantAndreu,60,Sant Andreu,8030,32
1e745fb8,C/,SANT ADRIÀ,2,41.433934,2.1896502,27,09,SantAndreu,60,Sant Andreu,8030,24
7291c751,C/,FERNANDO PESSOA,41,41.4419866639024,2.19295764171618,23.5,09,SantAndreu,60,Sant Andreu,8030,27
3d2633df,C/,DE BARTRINA,14,41.4391174,2.1858025,34,09,SantAndreu,60,Sant Andreu,8030,24
74ebcfcd,CARRER,DEL CINCA,7,41.4356895,2.1920873,22,09,SantAndreu,60,Sant Andreu,8030,27
e24bbc0a,C/,VILLARROEL,39,41.3821314,2.1606534,17,02,Eixample,10,Sant Antoni,8011,32
2794dfa5,C/,ENTENÇA,70,41.3790954665734,2.1516210083712,21,02,Eixample,09,la Nova Esquerra de l'Eixample,8015,24
2991d6e9,PG.,TORRAS I BAGES,29,41.4378773,2.1910691,23,09,SantAndreu,60,Sant Andreu,8030,20
82ebca2b,,REPÚBLICA DOMINICANA,25,41.439929,2.1970692,20,09,SantAndreu,59,el Bon Pastor,8030,32
c3a09a94,C/,CASANOVA,55,41.3847738,2.1592566,23,02,Eixample,08,l'Antiga Esquerra de l'Eixample,8011,27
f58894f7,C/,RIERA D'HORTA,2,41.427591,2.183966,38,09,SantAndreu,62,el Congrés i els Indians,8027,34
bef66dae,PG.,TORRAS I BAGES,129,41.4433647,2.1906302,29,09,SantAndreu,60,Sant Andreu,8030,24
e644f81f,C/,FERNANDO PESSOA,72,41.4457195,2.1929816,26,09,SantAndreu,60,Sant Andreu,8030,27
4250574f,,VIA BARCINO,121,41.448152,2.19294,26,09,SantAndreu,57,la Trinitat Vella,8033,20
ae133b7c,,270 - CRTA. DE RIBES,77,41.4486328,2.1898372,35,09,SantAndreu,57,la Trinitat Vella,8033,27
5e20dd5a,,VIA DE BÀRCINO,54,41.45137,2.1922985,NA,09,SantAndreu,57,la Trinitat Vella,8033,21
76f76484,C/,CONCEPCIÓ ARENAL,281,41.4325013,2.1842021,32,09,SantAndreu,60,Sant Andreu,8033,27
da354038,AV.,MERIDIANA,404,41.4304126,2.1834174,38,09,SantAndreu,60,Sant Andreu,8030,36
b0257112,RAMBLA,FABRA I PUIG,67,41.4299201,2.1849813,33,09,SantAndreu,60,Sant Andreu,8030,32
359cb5c1,AV.,RIO DE JANEIRO,3,41.43068,2.1821802,38,08,NouBarris,45,Porta,8016,32
01d3e4c7,PLAÇA,ALFONS X EL SAVI,,41.4121345,2.1652216,88,07,Horta-Guinardó,33,el Baix Guinardó,8024,27
ff52324d,,TRAVESSERA DE GRÀCIA,328,41.4082107,2.1689962,60,07,Horta-Guinardó,33,el Baix Guinardó,8025,27
fe3e8ef2,,TRAVESSERA DE GRÀCIA,368,41.4098842,2.1715285,59,07,Horta-Guinardó,33,el Baix Guinardó,8025,27
d050923d,C/,MAS CASANOVAS,137,41.4158995,2.1745567,75,07,Horta-Guinardó,35,el Guinardó,8041,27
ea2d0e3b,C/,SANT ANTONI Mª CLARET,290,41.4138664,2.1777274,49,07,Horta-Guinardó,35,el Guinardó,8041,27
419c4b2a,C/,D'ESCORNALBOU,51,41.4180789,2.1763994,74,07,Horta-Guinardó,35,el Guinardó,8041,24
2dd0aa51,PG.,FONT D´EN- FARGAS,1,41.4275514,2.1659881,75,07,Horta-Guinardó,36,la Font d'en Fargues,8031,27
3709f9d3,C/,FULTON,1,41.4297231,2.1617032,76,07,Horta-Guinardó,43,Horta,8032,20
eb4c9f31,AV.,DIAGONAL,652,41.389462,2.1314948,63,04,LesCorts,19,les Corts,8034,27
be2b00c9,C/,MALATS,98,41.4366708,2.186105,35,09,SantAndreu,60,Sant Andreu,8030,15
5924dd7e,C/,BOLÍVIA,76,41.4030225,2.1913538,7,10,SantMartí,66,el Parc i la Llacuna del Poblenou,8018,18
5060dcb0,GRAN VIA,DE LES CORTS CATALANES,632,41.3890626,2.1679313,22,02,Eixample,07,la Dreta de l'Eixample,8007,16
b2b54a41,PL.,VIRREI AMAT,,41.4296439,2.174444,55,08,NouBarris,44,Vilapicina i la Torre Llobeta,8016,32
24111c0f,C/,MÚRCIA,64,41.4166982,2.1909952,17,09,SantAndreu,63,Navas,8027,27
9e6b7dfa,PL.,DELS JARDINS D'ALFÀBIA,1,41.4373376,2.1740962,66,08,NouBarris,45,Porta,8016,17
77ffe56d,C/,CUBELLES,2,41.426078,2.1751572,57,08,NouBarris,44,Vilapicina i la Torre Llobeta,8031,27
f834e126,C/,AMILCAR,1,41.4300161,2.1720191,61,08,NouBarris,44,Vilapicina i la Torre Llobeta,8031,12
7978f2bf,C/,GRANOLLERS,1,41.4283127,2.1629889,78,07,Horta-Guinardó,43,Horta,8032,24
c0235285,,SEU DEL DISTRICTE (NOU BARRIS),,41.4363473,2.1706752,72,08,NouBarris,48,la Guineueta,8042,24
0abdb63a,C/,SANT ISCLE,60,41.433384,2.1716309,61,08,NouBarris,46,el Turó de la Peira,8031,27
5e4b70a1,C/,DE ROSSELLÓ I PORCEL,1,41.4364887,2.1841014,41,08,NouBarris,45,Porta,8016,33
093916a6,C/,TURÓ BLAU,1,41.4388223,2.1767828,62,08,NouBarris,52,la Prosperitat,8016,24
aa13e64a,C/,ANDREU NIN,22,41.4347233,2.1817718,41,08,NouBarris,45,Porta,8016,32
fee7d94f,C/,DE L'ESCULTOR ORDÓÑEZ,55,41.4340849,2.1748267,53,08,NouBarris,45,Porta,8016,27
d7d7164f,C/,DE MALADETA,1,41.4315843,2.1769107,44,08,NouBarris,45,Porta,8016,18
ef8c7030,C/,MARIE CURIE,8,41.4366871,2.1693134,73,08,NouBarris,48,la Guineueta,8042,27
408284d5,C/,CAVALLERS,41,41.3906352,2.111541,111,04,LesCorts,21,Pedralbes,8034,39
bb61a0a8,C/,CAVALLERS,67,41.3934324,2.115107,101,04,LesCorts,21,Pedralbes,8034,27
cf5fb4fc,PG.,MANUEL GIRONA,7,41.39038,2.121,78,04,LesCorts,23,Sarrià,8034,26
6fc29098,AV.,DIAGONAL,680,41.3875297,2.1237141,65,04,LesCorts,21,Pedralbes,8034,27
93572f6b,C/,DOCTOR SALVADOR CARDENAL,1,41.3853868,2.122893,60,04,LesCorts,20,la Maternitat i Sant Ramon,8028,31
f81496dd,C/,PINTOR RIBALTA,,41.3791986,2.1135824,60,04,LesCorts,20,la Maternitat i Sant Ramon,8028,32
ceae3c22,C/,CARDENAL REIG,11,41.37684,2.114029,54,04,LesCorts,20,la Maternitat i Sant Ramon,8028,27
9e6c3691,C/,SANT RAMON NONAT,26,41.3770199,2.1169828,50,04,LesCorts,20,la Maternitat i Sant Ramon,8028,22
8d671020,C/,JOSEP SAMITIER,,41.3812111,2.1190863,46,04,LesCorts,20,la Maternitat i Sant Ramon,8028,27
7d15fcb0,C/,GALLEGO,2,41.3785631,2.1202487,43,04,LesCorts,20,la Maternitat i Sant Ramon,8028,23
d3eda0cc,C/,ARIZALA,77,41.3789061,2.1233038,40,04,LesCorts,20,la Maternitat i Sant Ramon,8028,36
26be4a31,C/,FELIU DE CASANOVA,1,41.3754188,2.1297823,28,03,Sants-Montjuïc,17,Sants - Badal,8028,29
fe4a055d,RAMBLA,DEL BRASIL,44,41.3783067,2.1297303,35,03,Sants-Montjuïc,18,Sants,8028,24
e5b8da82,C/,DEL GUINARDÓ,32,41.4156285,2.1817876,38,10,SantMartí,64,el Camp de l'Arpa del Clot,8041,27
4eb7790b,C/,CANTÀBRIA,55,41.4224015,2.198071,9,10,SantMartí,73,la Verneda i la Pau,8020,26
2c5146c6,RAMBLA,DE PRIM,256,41.4256626,2.2008632,11,10,SantMartí,73,la Verneda i la Pau,8020,27
04197d2f,C/,CASTILLEJOS,388,41.412427,2.170592,77,07,Horta-Guinardó,33,el Baix Guinardó,8025,32
0b8b16f4,C/,SAGUÉS,1,41.3937414,2.1455022,51,05,Sarrià-StGervasi,26,Sant Gervasi - Galvany,8021,31
f2238cd3,C/,MADRAZO,39,41.400305,2.149144,67,05,Sarrià-StGervasi,26,Sant Gervasi - Galvany,8006,27
436c0bee,C/,SANT HERMENEGILD,30,41.4031529,2.1445843,79,05,Sarrià-StGervasi,27,el Putxet i el Farró,8006,27
800d0e34,C/,SANTALÓ,165,41.4009,2.13892,106,05,Sarrià-StGervasi,26,Sant Gervasi - Galvany,8021,24
e0edca5e,C/,VALLMAJOR,13,41.3981616,2.1386719,88,05,Sarrià-StGervasi,26,Sant Gervasi - Galvany,8021,27
1677955f,C/,REINA VICTORIA,31,41.3969455,2.136346,80,05,Sarrià-StGervasi,26,Sant Gervasi - Galvany,8021,27
2f840120,C/,ALT DE GIRONELLA,13,41.3949601,2.1302775,82,05,Sarrià-StGervasi,24,les Tres Torres,8017,23
d88ff1c5,C/,BALMES,409,41.4074131,2.1381069,111,05,Sarrià-StGervasi,25,Sant Gervasi - la Bonanova,8022,32
463313be,C/,REUS,23,41.4050074,2.134603,114,05,Sarrià-StGervasi,25,Sant Gervasi - la Bonanova,8022,24
c7195e0b,C/,ARTESA DE SEGRE,2,41.402988,2.1344691,106,05,Sarrià-StGervasi,25,Sant Gervasi - la Bonanova,8022,27
ea7e6965,C/,DE LES ESCOLES PIES,99,41.4029965,2.1283866,121,05,Sarrià-StGervasi,24,les Tres Torres,8017,27
0de38ef5,C/,PAU ALCOVER,94,41.401883,2.131524,108,05,Sarrià-StGervasi,24,les Tres Torres,8017,27
1c21f3f7,C/,CASTELLNOU,65,41.3970497,2.1279409,95,05,Sarrià-StGervasi,24,les Tres Torres,8017,31
ccfcaa2c,C/,DOCTOR ROUX,86,41.3998981,2.1281922,104,05,Sarrià-StGervasi,24,les Tres Torres,8017,27
8d300263,,PASSATGE DE SENILLOSA,3,41.3954723,2.1250451,94,05,Sarrià-StGervasi,23,Sarrià,8034,27
7c1614a9,PG.,BONANOVA,100,41.400793,2.122889,117,05,Sarrià-StGervasi,23,Sarrià,8017,26
01299ece,C/,SANTA AMÈLIA,2,41.3935355,2.1231228,92,05,Sarrià-StGervasi,23,Sarrià,8034,27
fb30a0a8,AV.,JOSEP VICENÇ FOIX,52,41.3948771,2.1205394,96,05,Sarrià-StGervasi,23,Sarrià,8034,23
babcf5df,C/,CARME KARR,12,41.3986238,2.1204941,117,05,Sarrià-StGervasi,23,Sarrià,8034,23
fa4ff748,AV.,JOSEP VICENÇ FOIX,63,41.3977227,2.1194557,111,05,Sarrià-StGervasi,23,Sarrià,8034,36
23aa54bb,C/,RAMON TURRÓ,246,41.4017084,2.2053803,2,10,SantMartí,68,el Poblenou,8005,27
9fba2951,C/,SANT ADRIÀ,113,41.4361782,2.2047037,13,09,SantAndreu,59,el Bon Pastor,8030,24
3f35015a,PG.,D'ENRIC SANCHIS,33,41.4339212,2.2062245,11,09,SantAndreu,59,el Bon Pastor,8030,27
c233ce93,C/,ROC BORONAT,134,41.4034967,2.1936584,5,10,SantMartí,66,el Parc i la Llacuna del Poblenou,8018,43
accab154,,AMPANA DE LA MAQUINISTA (SAO PAULO I PL. DE,,41.4389609,2.1996179,14,09,SantAndreu,59,el Bon Pastor,8030,27
7c2f435c,C/,CIUTAT D'ASUNCIÓN,73,41.4431441,2.1996045,16,09,SantAndreu,58,Baró de Viver,8030,27
b40e7575,PL.,TERESA DE CLARAMUNT,,41.3631066,2.1398322,10,03,Sants-Montjuïc,13,la Marina de Port,8038,32
c6c0e1d8,PG.,ZONA FRANCA,182,41.360798,2.138931,8,03,Sants-Montjuïc,13,la Marina de Port,8038,36
e09a18e0,C/,ALTS FORNS,77,41.3595484,2.1417765,9,03,Sants-Montjuïc,13,la Marina de Port,8038,32
54d67609,,JARDINS DE CAN FERRERO,,41.357067,2.141563,7,03,Sants-Montjuïc,13,la Marina de Port,8038,33
5998b393,C/,DE L'ENERGIA,2,41.3573288,2.1371996,7,03,Sants-Montjuïc,13,la Marina de Port,8038,31
8358c6b9,C/,LONDRES,63,41.391756,2.148291,NA,02,Eixample,08,l'Antiga Esquerra de l'Eixample,8036,31
9bf2a936,C/,JANE ADDAMS,26,41.3621232,2.1356187,9,03,Sants-Montjuïc,13,la Marina de Port,8038,33
08cd3810,,RADI,10,41.363279,2.1341586,9,03,Sants-Montjuïc,13,la Marina de Port,8038,28
5de3ce73,C/,MUNNÉ  2-6,,41.37541,2.1232547,34,03,Sants-Montjuïc,17,Sants - Badal,8028,31
79f3fa2b,RAMBLA,DEL BRASIL,5,41.3759419,2.1299539,28,03,Sants-Montjuïc,17,Sants - Badal,8028,26
dbaa0647,C/,RIERA BLANCA,123,41.371459,2.127854,22,03,Sants-Montjuïc,17,Sants - Badal,8028,27
56aaf03f,C/,CAMÈLIES,73,41.4134503,2.1631012,106,07,Horta-Guinardó,33,el Baix Guinardó,8024,35
d70d2662,C/,CARDENER,59,41.4105956,2.1579897,87,06,Gràcia,31,la Vila de Gràcia,8024,27
044647e6,C/,GOMBAU,24,41.3872437,2.1793035,5,01,CiutatVella,04,"Sant Pere, Santa Caterina i la Ribera",8003,26
02f29d2c,C/,MÉNDEZ NÚÑEZ,16,41.3900544,2.1775594,12,01,CiutatVella,04,"Sant Pere, Santa Caterina i la Ribera",8003,26
fb55425f,C/,BAILÉN,62,41.3952527,2.1730023,22,02,Eixample,07,la Dreta de l'Eixample,8009,30
20f482f3,PG.,DE COLOM (LES RAMBLES),,41.37652,2.17881,5,01,CiutatVella,02,el Barri Gòtic,8039,32
4cdb36c4,C/,BAILÉN,100,41.396994,2.1706323,27,02,Eixample,07,la Dreta de l'Eixample,8009,32
eb62b1ec,C/,BRUC,20,41.3908381,2.1743743,16,02,Eixample,07,la Dreta de l'Eixample,8010,24
7368628b,PG.,DE GRÀCIA,61,41.393062,2.1633226,32,02,Eixample,07,la Dreta de l'Eixample,8007,33
ed457349,C/,VILADOMAT,244,41.3875712,2.1469336,39,02,Eixample,09,la Nova Esquerra de l'Eixample,8029,31
2b521388,C/,MARQUÈS DE SENTMENAT,46,41.384972,2.1376205,44,04,LesCorts,19,les Corts,8029,31
9d46a119,C/,DIPUTACIÓ,373,41.3968391,2.1756598,21,02,Eixample,07,la Dreta de l'Eixample,8013,27
1ef9d53a,C/,CONSELL DE CENT,482,41.40013,2.1780175,23,02,Eixample,05,el Fort Pienc,8013,27
d4236fd4,C/,SARDENYA,326,41.4039698,2.1729061,37,02,Eixample,06,la Sagrada Família,8025,32
b7b63a1e,C/,DELS ENAMORATS,49,41.4040525,2.181199,19,02,Eixample,06,la Sagrada Família,8013,36
d59e4e74,C/,RIBES,77,41.4001015,2.1841711,9,02,Eixample,05,el Fort Pienc,8013,27
0c90cd22,AV.,PARAL.LEL,132,41.3750995,2.1613897,13,02,Eixample,10,Sant Antoni,8015,30
3e42fd82,PG.,DE GRÀCIA,89,41.3949729,2.1612814,37,02,Eixample,07,la Dreta de l'Eixample,8008,33
61026db8,,WORLD TRADE CENTER,,41.3720293,2.1804468,3,01,CiutatVella,01,el Raval,8039,43
6a1c634f,,WORLD  TRADE CENTER,,41.3718728,2.180302,3,01,CiutatVella,01,el Raval,8039,43
ec83d538,PL.,ICTÍNEO,,41.3776292,2.1836886,2,01,CiutatVella,02,el Barri Gòtic,8039,29
ea5e6b49,PL.,JOAQUIM XIRAU I PALAU,1,41.3785379,2.1767427,5,01,CiutatVella,02,el Barri Gòtic,8002,21
7bbcf479,AV.,JOSEP TARRADELLAS,27,41.3829333,2.1420704,35,03,Sants-Montjuïc,18,Sants,8029,20
dc76cdeb,C/,DURAN I BAS,2,41.3854094,2.1740155,11,01,CiutatVella,02,el Barri Gòtic,8002,24
90f3acad,C/,AGUSTÍ DURAN I SANPERE,10,41.381635534627,2.16772946686476,NA,01,CiutatVella,01,el Raval,8001,40
fd328441,C/,LOPE DE VEGA,79,41.4038902,2.2041137,3,10,SantMartí,68,el Poblenou,8005,27
4e608d4d,C/,NUMÀNCIA,2,41.381219,2.141767,32,03,Sants-Montjuïc,18,Sants,8029,24
673a64a4,C/,VILAMARÍ,85,41.3807072,2.1468381,28,02,Eixample,09,la Nova Esquerra de l'Eixample,8015,25
a18839f6,C/,CASANOVA,119,41.387888,2.1552902,30,02,Eixample,08,l'Antiga Esquerra de l'Eixample,8036,30
7e22589b,AV.,PARAL.LEL 164,,41.3751866,2.1568773,17,02,Eixample,10,Sant Antoni,8015,18
32c313f9,C/,NÀPOLS,125,41.3957813,2.1787074,15,02,Eixample,05,el Fort Pienc,8013,32
1fbe7413,C/,RIERA ALTA,6,41.3806411,2.1671611,10,01,CiutatVella,01,el Raval,8001,35
262809a4,,RECINTE PARC DE LA CIUTADELLA,,41.3873901,2.1875446,4,01,CiutatVella,04,"Sant Pere, Santa Caterina i la Ribera",8003,27
1e30ac2c,C/,COMERÇ,36,41.3869612,2.1820169,5,01,CiutatVella,04,"Sant Pere, Santa Caterina i la Ribera",8003,25
5e3d13bd,C/,GRAN DE LA SAGRERA,74,41.4230551,2.1913753,22,09,SantAndreu,61,la Sagrera,8027,27
be14f0bf,C/,RAMON TURRÓ,4,41.3905303,2.1906339,5,10,SantMartí,67,la Vila Olímpica del Poblenou,8005,19
c6d4eeff,C/,LLACUNA,86,41.4022657,2.1976297,3,10,SantMartí,68,el Poblenou,8005,32
79c8c4ff,C/,DIPUTACIÓ,226,41.3873057,2.1631263,25,02,Eixample,08,l'Antiga Esquerra de l'Eixample,8007,26
d795a4d0,PL.,CATALUNYA,22,41.3860607,2.1702467,15,02,Eixample,02,el Barri Gòtic,8002,33
72abf7fd,C/,JOAN MIRÓ,2,41.3890253,2.1968267,5,10,SantMartí,67,la Vila Olímpica del Poblenou,8005,32
4f5d3baf,AV.,LITORAL (PG MARÍTIM DEL PORT OLÍMPIC),,41.3889129,2.1993105,6,10,SantMartí,67,la Vila Olímpica del Poblenou,8005,27
5e319dd9,PG.,MARÍTIM DE LA BARCELONETA,,41.380955,2.1934636,4,01,CiutatVella,03,la Barceloneta,8003,35
5a7aded0,C/,PAVIA,3,41.3734706,2.1332694,23,03,Sants-Montjuïc,18,Sants,8028,27
7c503fa0,,MOLL ORIENTAL,,41.3694508,2.1879597,3,01,CiutatVella,03,la Barceloneta,8039,44
e77f3a75,,A DE PALAU,,41.382418,2.183723,4,01,CiutatVella,02,el Barri Gòtic,8002,24
dc2a5366,PG.,DE COLOM (VIA LAIETANA),,41.380628,2.1821917,4,01,CiutatVella,02,el Barri Gòtic,8002,31
c29e2d57,C/,VALLESPIR,49,41.3796421,2.1368202,32,03,Sants-Montjuïc,18,Sants,8014,22
10f9634c,C/,JUAN GRIS,28,41.3653426,2.1331357,11,03,Sants-Montjuïc,16,la Bordeta,8014,32
bab089e0,C/,COMTE BORRELL,198,41.3854003,2.1521802,28,02,Eixample,09,la Nova Esquerra de l'Eixample,8029,26
efd7bf86,GRAN VIA,DE LES CORTS CATALANES,592,41.3863747,2.1646697,21,02,Eixample,07,la Dreta de l'Eixample,8007,33
ddd3b1f2,C/,RAMON TRIAS FARGAS,23,41.3889972,2.1923283,5,10,SantMartí,67,la Vila Olímpica del Poblenou,8005,39
08d0296a,C/,JOAN D'ÀUSTRIA,31,41.392384,2.1925059,5,10,SantMartí,67,la Vila Olímpica del Poblenou,8005,27
fcafbc35,,DE COLOM (LES RAMBLES),,41.376433,2.17871,5,01,CiutatVella,02,el Barri Gòtic,8039,38
98c39aed,C/,JOSEP PLA,67,41.411381,2.2122054,4,10,SantMartí,69,Diagonal Mar i el Front Marítim del Poblenou,8019,24
30cc698b,PL.,URQUINAONA,3,41.3893094,2.1727457,17,02,Eixample,07,la Dreta de l'Eixample,8010,27
902d444f,C/,BRUC,66,41.393489,2.1707419,24,02,Eixample,07,la Dreta de l'Eixample,8009,32
08c657d1,C/,CASP,67,41.3937234,2.1764275,16,02,Eixample,07,la Dreta de l'Eixample,8010,33
24495767,RAMBLA,DEL RAVAL,13,41.3793558,2.1689592,8,01,CiutatVella,01,el Raval,8001,25
81cd7202,RAMBLA,DEL RAVAL,20,41.3781065,2.1696744,6,01,CiutatVella,01,el Raval,8001,26
3970b421,C/,VILLAR,2,41.4164824,2.1801094,46,07,Horta-Guinardó,35,el Guinardó,8041,32
77c6b302,PG.,DE LLUíS COMPANYS (ARC DE TRIOMF),,41.391062,2.1801142,10,01,CiutatVella,04,"Sant Pere, Santa Caterina i la Ribera",8018,27
2717da41,PG.,DE LLUIS COMPANYS (ARC DE TRIOMF),,41.391313,2.1808391,10,01,CiutatVella,04,"Sant Pere, Santa Caterina i la Ribera",8018,33
b2679a95,GRAN VIA,DE LES CORTS CATALANES,368,41.3743329,2.1479385,24,03,Sants-Montjuïc,11,el Poble-sec,8010,27
a18a708f,C/,VALLESPIR,13,41.378118,2.1378667,30,03,Sants-Montjuïc,18,Sants,8014,25
5912944c,C/,JORDI GIRONA,29,41.3881175,2.1154135,82,04,LesCorts,21,Pedralbes,8034,44
849c69f1,C/,HONDURAS,32,41.4202459,2.1894852,22,09,SantAndreu,61,la Sagrera,8027,32
d16cbb98,PG.,MARÍTIM DE LA BARCELONETA,6,41.3795862,2.1925198,7,01,CiutatVella,03,la Barceloneta,8003,27
b97293cb,C/,DE CERVELLÓ,5,41.3765618,2.1748621,5,01,CiutatVella,01,el Raval,8001,24
c3d683a0,C/,DE RIBES,59,41.39828,2.1830315,12,02,Eixample,05,el Fort Pienc,8013,33
6ab4faf5,C/,DE SANT PAU,119,41.3754047,2.1680021,9,01,CiutatVella,01,el Raval,8001,26
482e97b3,C/,PUJADES,103,41.3983902,2.1960799,3,10,SantMartí,68,el Poblenou,8005,33
d8ffb3bf,C/,GRAN CAPITÀ,9,41.3881262,2.1091535,105,04,LesCorts,21,Pedralbes,8034,28
9d56b458,C/,ALFAMBRA,2,41.385641,2.113096,77,04,LesCorts,21,Pedralbes,8034,27
81a8c721,AV.,JOAN XXIII,17,41.383467,2.122175,53,04,LesCorts,20,la Maternitat i Sant Ramon,8028,20
75cd128e,C/,MARTÍ I FRANQUÈS,1,41.3847061,2.1170751,63,04,LesCorts,20,la Maternitat i Sant Ramon,8028,28
4498efb0,C/,J. MAYNARD KEYNES,2,41.3862258,2.1168609,70,04,LesCorts,21,Pedralbes,8034,53
517c6584,C/,ROGER,24,41.3767538,2.1269152,34,03,Sants-Montjuïc,17,Sants - Badal,8028,27
5c5700c9,AV.,DOCTOR MARAÑON,25,41.383585,2.112186,64,04,LesCorts,20,la Maternitat i Sant Ramon,8028,28
efbaaff6,PG.,ZONA FRANCA,54,41.3545425,2.1433038,6,03,Sants-Montjuïc,12,la Marina del Prat Vermell,8038,19
4d4fb14e,PG.,ZONA FRANCA,9,41.3513237,2.1450958,5,03,Sants-Montjuïc,12,la Marina del Prat Vermell,8038,36
c608a7c9,C/,NÀPOLS,183,41.3981669,2.1754896,22,02,Eixample,07,la Dreta de l'Eixample,8013,27
f89604a8,RBLA.,BADAL,73,41.3685394,2.1328403,14,03,Sants-Montjuïc,16,la Bordeta,8014,17
94f1fc87,C/,SELVA DE MAR,230,41.417694,2.1976864,9,10,SantMartí,72,Sant Martí de Provençals,8020,27
c85e8b8b,C/,WATT,2,41.3754426,2.1398409,25,03,Sants-Montjuïc,18,Sants,8014,18
02da30ca,C/,MINERIA,30,41.3649272,2.138599,11,03,Sants-Montjuïc,13,la Marina de Port,8038,18
c3f73f02,C/,CASANOVA,139,41.3887127,2.1542277,33,02,Eixample,08,l'Antiga Esquerra de l'Eixample,8036,32
a8896745,C/,LLEIDA,40,41.3717304,2.1554047,33,03,Sants-Montjuïc,11,el Poble-sec,8004,27
636b2120,C/,VILAMARÍ,2,41.3755016,2.154004,21,02,Eixample,10,Sant Antoni,8015,24
34ca7cba,PG.,JOAN DE BORBÓ,42,41.3779974,2.1884228,4,01,CiutatVella,03,la Barceloneta,8003,15
caca1934,C/,ALMOGÀVERS,63,41.3943033,2.1860256,10,02,Eixample,05,el Fort Pienc,8018,27
ee7484cb,C/,RAMÓN TURRÓ,160,41.3972809,2.1997869,3,10,SantMartí,68,el Poblenou,8005,27
4b9adbc0,C/,BOLIVIA,120,41.4058109,2.1949461,5,10,SantMartí,71,Provençals del Poblenou,8018,27
6107817e,C/,CRISTOBAL DE MOURA,84,41.410712,2.2061691,3,10,SantMartí,71,Provençals del Poblenou,8019,27
8fcd38f1,C/,PALLARS,504,41.4140598,2.2150487,4,10,SantMartí,70,el Besòs i el Maresme,8019,24
4bc1757a,GRAN VIA,DE LES CORTS CATALANES,1157,41.4194972,2.20934,8,10,SantMartí,73,la Verneda i la Pau,8020,54
6214bd15,C/,SARDENYA,402,41.4072349,2.1684799,56,07,Horta-Guinardó,33,el Baix Guinardó,8025,26
538fdeca,C/,MÚRCIA,1,41.4143392,2.1874539,22,10,SantMartí,65,el Clot,8026,21
8be8656c,C/,GRANADELLA,10,41.4383117,2.2039823,12,09,SantAndreu,59,el Bon Pastor,8030,18
176bfe40,C/,TUCUMÁN,21,41.4457962,2.2010422,17,09,SantAndreu,59,el Bon Pastor,8030,24
f356e4f6,PG.,SANTA COLOMA,105,41.4479402,2.1976757,24,09,SantAndreu,57,la Trinitat Vella,8030,39
fe0494b7,C/,MIREIA,28,41.4513863,2.1894717,56,09,SantAndreu,57,la Trinitat Vella,8033,15
611f9303,AV.,RIO DE JANEIRO,118,41.442489,2.185727,43,08,NouBarris,52,la Prosperitat,8016,28
933026bc,C/,PALAMÓS,33,41.446923,2.184857,61,08,NouBarris,53,la Trinitat Nova,8033,28
8e45597e,C/,PEDROSA,24,41.4490679,2.1833801,68,08,NouBarris,53,la Trinitat Nova,8033,24
40bcbdb1,AV.,RIO DE JANEIRO,96,41.439692,2.182335,47,08,NouBarris,52,la Prosperitat,8016,24
a24b8771,C/,ROSSELLÓ,261,41.3954094,2.1599427,41,02,Eixample,07,la Dreta de l'Eixample,8008,27
45775ba6,C/,PABLO IGLESIAS,21,41.443387,2.1813051,63,08,NouBarris,52,la Prosperitat,8016,30
2cc300ee,PL.,JESÚS CARRASCO,,41.4450463,2.176726,93,08,NouBarris,51,Verdun,8042,20
1bdc8a1c,C/,NOU BARRIS,23,41.4480464,2.1775154,107,08,NouBarris,50,les Roquetes,8042,18
8d97ab6e,C/,SANT FRANCESC XAVIER,1,41.4417001,2.1781553,72,08,NouBarris,52,la Prosperitat,8016,12
5fcbd869,C/,GÒNGORA,23,41.4432762,2.1746238,93,08,NouBarris,51,Verdun,8042,24
76045421,PG.,VALLDAURA,171,41.4389014,2.1715576,78,08,NouBarris,48,la Guineueta,8042,24
46b51e5c,,VIA FAVÈNCIA,186,41.4427374,2.170393,105,08,NouBarris,48,la Guineueta,8042,23
f63b8dca,PG.,FABRA I PUIG,449,41.4388644,2.1657506,94,08,NouBarris,48,la Guineueta,8042,21
dff5279f,,VIA FAVÈNCIA,47,41.4418604,2.1664224,102,08,NouBarris,49,Canyelles,8042,24
6b142274,C/,CAMPO FLORIDO,66,41.4216738,2.1799878,46,09,SantAndreu,62,el Congrés i els Indians,8027,19
32764123,C/,PERIODISTES,9,41.422037,2.174401,80,07,Horta-Guinardó,35,el Guinardó,8032,18
6df48b08,C/,AMILCAR,78,41.4260751,2.1722534,69,07,Horta-Guinardó,36,la Font d'en Fargues,8032,26
d9052b84,C/,ESCULTOR LLIMONA,7,41.4276076,2.1697582,65,08,NouBarris,44,Vilapicina i la Torre Llobeta,8031,30
971891dd,PG.,FABRA I PUIG,344,41.430623,2.1671068,73,08,NouBarris,46,el Turó de la Peira,8031,18
2ca50c39,PG.,FABRA I PUIG,385,41.4333259,2.1629258,92,07,Horta-Guinardó,43,Horta,8031,28
e0134458,PG.,FABRA I PUIG,411,41.4357978,2.163872,89,07,Horta-Guinardó,43,Horta,8031,27
49ca3d4a,PG.,UNIVERSAL,29,41.4372022,2.1620235,95,07,Horta-Guinardó,43,Horta,8042,22
f87f2f87,,BAIXADA DE LA PLANA,35,41.4294833044993,2.15908110912321,NA,07,Horta-Guinardó,43,Horta,8032,32
b6c3605f,C/,EDUARD TODA,33,41.4345997,2.1585268,104,07,Horta-Guinardó,43,Horta,8031,27
4c21c277,PG.,VALLDAURA,26,41.4374904,2.1565742,121,07,Horta-Guinardó,43,Horta,8031,27
0b3c5585,C/,PORTO,35,41.4306102,2.1564551,81,07,Horta-Guinardó,43,Horta,8032,28
8154c300,C/,LISBOA,128,41.4267638,2.1521909,98,07,Horta-Guinardó,42,la Clota,8032,27
0ab6411a,AV.,CAN MARCET,36,41.4347859,2.147904,132,07,Horta-Guinardó,41,la Vall d'Hebron,8035,27
685e4b50,C/,JORGE MANRIQUE,15,41.4312335,2.1499103,119,07,Horta-Guinardó,41,la Vall d'Hebron,8035,27
b635750e,PG.,VALL D'HEBRÓN,168,41.4280668,2.1443777,150,07,Horta-Guinardó,41,la Vall d'Hebron,8035,49
11189e88,C/,PARE MARIANA,24,41.4306689,2.1456449,125,07,Horta-Guinardó,41,la Vall d'Hebron,8035,27
7d923446,PL.,TETUAN,,41.3943454,2.1751709,18,02,Eixample,07,la Dreta de l'Eixample,8010,23
c6071172,PG.,VALL D'HEBRÓN,80,41.419965,2.1401823,166,06,Gràcia,28,Vallcarca i els Penitents,8023,24
80b6e949,RBLA.,CATALUNYA,33,41.3896967,2.1652199,25,02,Eixample,07,la Dreta de l'Eixample,8007,24
839dc5ac,C/,DIPUTACIÓ,22,41.377846,2.150523,24,02,Eixample,09,la Nova Esquerra de l'Eixample,8015,21
6396613a,C/,PROVENÇA,445,41.4048623,2.174799,33,02,Eixample,06,la Sagrada Família,8025,18
ce6c6f02,,PTGE. MALUQUER,16,41.4095489,2.1360313,124,05,Sarrià-StGervasi,25,Sant Gervasi - la Bonanova,8022,27
98234124,C/,ESTEVE TERRADAS,42,41.4144967,2.1402433,145,06,Gràcia,28,Vallcarca i els Penitents,8023,26
9d2ef29a,AV.,VALLCARCA,196,41.4160558,2.1421504,127,06,Gràcia,28,Vallcarca i els Penitents,8023,27
b4346267,C/,ARGENTERA,23,41.4117633,2.1453424,101,06,Gràcia,28,Vallcarca i els Penitents,8023,23
9ef953a0,C/,ELISA,1,41.4052698,2.1420204,95,05,Sarrià-StGervasi,27,el Putxet i el Farró,8023,16
74cee130,AV.,VALLCARCA,11,41.4074444,2.1492066,88,06,Gràcia,28,Vallcarca i els Penitents,8023,19
c7fa4134,C/,MAIGNON,31,41.4095926,2.1524953,105,06,Gràcia,30,la Salut,8024,30
0c1b0be0,C/,MASSENS,76,41.4092333,2.1557747,87,06,Gràcia,31,la Vila de Gràcia,8024,28
2eb47162,C/,CAMÈLIES,78,41.4145614,2.1658677,118,07,Horta-Guinardó,33,el Baix Guinardó,8024,27
dae7eaf8,C/,GARRIGA I ROCA,2,41.4191957,2.1718497,107,07,Horta-Guinardó,35,el Guinardó,8041,15
223dce94,C/,SARDENYA,494,41.4107641,2.1640965,81,07,Horta-Guinardó,33,el Baix Guinardó,8024,23
bc06fac4,C/,SARDENYA,465,41.4090922,2.1656378,70,06,Gràcia,32,el Camp d'en Grassot i Gràcia Nova,8025,26
30dc48bd,C/,TORRENT DE L'OLLA,11,41.3989713,2.1606736,46,06,Gràcia,31,la Vila de Gràcia,8012,32
8c9f4517,C/,GRAN DE GRÀCIA,37,41.3989151,2.1564253,55,06,Gràcia,31,la Vila de Gràcia,8012,27
03376461,C/,GRAN DE GRÀCIA,91,41.4006862,2.1543317,61,06,Gràcia,31,la Vila de Gràcia,8012,20
967ebed2,C/,D'ALACANT,12,41.4000778,2.1326911,96,05,Sarrià-StGervasi,24,les Tres Torres,8017,27
078bc469,,VIA AUGUSTA,317,41.399017,2.124329,111,05,Sarrià-StGervasi,24,les Tres Torres,8017,28
e5204f51,C/,ARAGÓ,614,41.4095069,2.1885055,16,10,SantMartí,65,el Clot,8018,24
e29d2ba2,C/,SANT ADRIÀ,43,41.4352071,2.1948002,19,09,SantAndreu,59,el Bon Pastor,8030,24
88d90b92,C/,SANT ADRIÀ,88,41.4354601,2.2001569,15,09,SantAndreu,59,el Bon Pastor,8030,21
a636d57d,AV.,RASOS DE PEGUERA,10,41.462095,2.178959,44,08,NouBarris,55,Ciutat Meridiana,8033,20
104da435,C/,LLOBREGÓS,115,41.4246885,2.1570492,112,07,Horta-Guinardó,37,el Carmel,8032,27
bc8b6626,C/,PEDRELL,52,41.4246548,2.166289,110,07,Horta-Guinardó,36,la Font d'en Fargues,8032,24
c8f73d35,C/,TARONGERS,,41.3683855,2.1645038,93,03,Sants-Montjuïc,11,el Poble-sec,8038,27
7c1b2789,PG.,OLIMPIC,8,41.3619729005392,2.15432161045075,NA,03,Sants-Montjuïc,11,el Poble-sec,8038,36
9c9bae2a,AV.,ESTADI,12,41.3653602,2.1476099,75,03,Sants-Montjuïc,11,el Poble-sec,8038,40
467de5c2,AV.,ESTADI,38,41.3663147,2.1522059,86,03,Sants-Montjuïc,11,el Poble-sec,8038,24
46cf9251,C/,FRANÇA XICA,4,41.3721749,2.1602153,26,03,Sants-Montjuïc,11,el Poble-sec,8004,16
33cab601,C/,MANDONI,6,41.3693483,2.1426008,18,03,Sants-Montjuïc,14,la Font de la Guatlla,8004,20
fe3ef735,C/,MARBRE,2,41.3614158,2.1476169,28,03,Sants-Montjuïc,13,la Marina de Port,8038,28
0f9105c7,,opa América Barcelona 2024,,41.3745380911102,2.18921691326618,NA,,,,,NA,1
514d62fa,,opa América Barcelona 2024,,41.3838298564072,2.19137099384841,NA,,,,,NA,1
df24d4c9,C/,MONTFAR,1,41.37049,2.148729,NA,03,Sants-Montjuïc,14,la Font de la Guatlla,8004,24
4e0bbc37,C/,MALLORCA,194,41.38997,2.15772,33,02,Eixample,08,l'Antiga Esquerra de l'Eixample,8036,23
679b1999,,VIA AUGUSTA,68,41.4005123,2.1518158,61,06,Gràcia,31,la Vila de Gràcia,8006,32
696f1f8c,C/,AVENIR,35,41.3957844,2.1468644,58,05,Sarrià-StGervasi,26,Sant Gervasi - Galvany,8021,23
8d9e0fe2,RBLA,MUNTANYA,49,41.4209497,2.1768396,62,07,Horta-Guinardó,35,el Guinardó,8041,36
1a4814c9,C/,MANILA,53,41.3900749643978,2.12649638895492,69.4,04,LesCorts,21,Pedralbes,8034,24
50fcb39b,C/,ENTENÇA,301,41.38952,2.13862,54,04,LesCorts,19,les Corts,8029,24
150032d8,C/,CARRERA,1,41.3744342365138,2.17486130472679,NA,03,Sants-Montjuïc,11,el Poble-sec,8004,28
be8d1b31,C/,FRA JUNÍPER SERRA,53,41.4321492376238,2.20548960446323,NA,09,SantAndreu,59,el Bon Pastor,8020,28
2e15c2f5,C/,CRISTÓBAL DE MOURA,163,41.4135108,2.2093559,9.98,10,SantMartí,71,Provençals del Poblenou,8019,17
c08d028e,C/,RAMON TURRÓ,182,41.39816,2.20085,3.66,10,SantMartí,68,el Poblenou,8005,23
a49b8bc3,C/,ROMÁN MACAYA,8,41.4134658326881,2.13520478647346,154.72,05,Sarrià-StGervasi,25,Sant Gervasi - la Bonanova,8022,24
2bda7aed,C/,QUATRE CAMINS,46,41.410472,2.131204,151,05,Sarrià-StGervasi,25,Sant Gervasi - la Bonanova,8022,28
bb5f95f0,AV.,CAN MARCET,3,41.4341809929127,2.15187841563274,115,07,Horta-Guinardó,41,la Vall d'Hebron,8035,24
cf45e90f,AV.,MARTÍ CODOLAR,2,41.4249916795074,2.14819656044664,122.88,07,Horta-Guinardó,41,la Vall d'Hebron,8035,20
b7bd9299,,PTGE. CALAFELL,3,41.4237747,2.1546161,129.15,07,Horta-Guinardó,37,el Carmel,8032,23
7be6b433,AV.,JORDÀ,18,41.426778,2.138417,184,07,Horta-Guinardó,39,Sant Genís dels Agudells,8035,28
b89a8911,C/,JUDEA,1,41.4250608907384,2.14117169130441,164.88,07,Horta-Guinardó,39,Sant Genís dels Agudells,8035,31
d0d2108f,C/,BRUC,88,41.394576,2.169295,NA,02,Eixample,07,la Dreta de l'Eixample,8009,16
cfb7e3de,C/,DIPUTACIÓ,303,41.392639960504,2.1696469558197,NA,02,Eixample,07,la Dreta de l'Eixample,8009,23
ba48087b,C/,PROVENÇA,310,41.3959653,2.1635462,0,,,,,NA,28
32cd6655,C/,BRUC,103,41.395821,2.16728,31,02,Eixample,07,la Dreta de l'Eixample,8009,23
e3b368fc,C/,VALÈNCIA,312,41.3950976,2.1666929,31.79,02,Eixample,07,la Dreta de l'Eixample,8009,23
a2022db6,C/,VALÈNCIA,237,41.39187,2.16202,32,02,Eixample,07,la Dreta de l'Eixample,8007,24
b2cbbbaf,C/,ROSSELLÓ,497,41.4081139,2.176757,37.11,02,Eixample,06,la Sagrada Família,NA,20
09d15964,C/,CÒRSEGA,612,41.4093189006091,2.17657691610016,40.65,02,Eixample,06,la Sagrada Família,8025,24
cc69e857,C/,CÒRSEGA,578,41.4079467,2.1748603,NA,02,Eixample,06,la Sagrada Família,NA,28
92990b69,C/,PAMPLONA,116,41.3990872310746,2.18839414292221,4.4,10,SantMartí,66,el Parc i la Llacuna del Poblenou,8018,24
8f66729a,C/,ÀVILA,94,41.3984589,2.1937281,4.76,10,SantMartí,66,el Parc i la Llacuna del Poblenou,8018,24
beac6ec9,C/,ÀVILA,102,41.3990190831577,2.1928972716948,4.64,10,SantMartí,66,el Parc i la Llacuna del Poblenou,8018,27
