barId,barName,barType,addressType,addressName,addressNumber,neighborhoodId,neighborhoodName,districtId,districtName,postCode,GEO_X,GEO_Y,latitude,longitude
﻿99400533969,Restaurant Maná 75,Cocteleries|Xampanyeries|Restaurants,PG,JOAN BORBÓ COMTE BARCELONA,101,3,La Barceloneta,1,Ciutat Vella,8039,432062.7396775468,4580297.972621243,41.371330800626644,2.1876265993001707
﻿99400533974,Restaurant Nº 30,Cocteleries|Xampanyeries|Restaurants,PG,JOAN BORBÓ COMTE BARCELONA,30,3,La Barceloneta,1,Ciutat Vella,8003,432105.45008947107,4581153.527277775,41.37904016646946,2.1880414416045597
﻿283174133,Bar La Confiteria,Bars I Pubs Musicals|Cocteleries|Xampanyeries,,SANT PAU,128,1,El Raval,1,Ciutat Vella,8001,430420.8875465,4580778.505595978,41.3755185559786,2.167940633280248
﻿99400698842,Cocteleria Monk,Cocteleries|Xampanyeries,CARRER,DELS ABAIXADORS,6,4,"Sant Pere, Santa Caterina I La Ribera",1,Ciutat Vella,8003,431536.934,4581610.29,41.38310592859262,2.181191553452184
﻿99400594206,Restaurant Saraya Shisha Club,Cocteleries|Xampanyeries|Restaurants,C,MUNTANER,102,8,L'antiga Esquerra De L'eixample,2,Eixample,8036,429513.17606518447,4582249.546051006,41.388688726870086,2.156915802866232
﻿99400574272,Restaurant Cocteleria Barítimo *maremàgnum,Cocteleries|Xampanyeries|Restaurants,,MOLL ESPANYA,5,2,El Barri Gòtic,1,Ciutat Vella,8039,431629.4517978431,4580759.423028869,41.375450271691385,2.182393934529025
﻿325120406,Atlàntic Bar,Bars I Pubs Musicals,AV,TIBIDABO,56,25,Sant Gervasi - La Bonanova,5,Sarrià-sant Gervasi,8035,427427.71569248976,4585232.145520625,41.41536627252069,2.131617012042792
﻿92086025238,Bar Musical Abanico,Bars I Pubs Musicals|Cocteleries|Xampanyeries,C,CAMP,3,26,Sant Gervasi - Galvany,5,Sarrià-sant Gervasi,8021,427960.60484518466,4583701.573558845,41.401629005577384,2.13817494725461
﻿99088120250,Discoteca La Terrrazza *poble Espanyol,Discoteques,AV,FRANCESC FERRER GUÀRDIA,13,11,El Poble-sec,3,Sants-montjuïc,8038,428641.3109980409,4580088.501961428,41.36914809976752,2.1467430809493484
﻿75990174460,Sala Plataforma,Bars I Pubs Musicals|Discoteques,C,NOU DE LA RAMBLA,145,11,El Poble-sec,3,Sants-montjuïc,8004,430423.4555811653,4580490.175411295,41.3729218744942,2.1680044328607373
﻿75990210498,Bar Musical Marley,Bars I Pubs Musicals,C,JOAN TORRAS,25,60,Sant Andreu,9,Sant Andreu,8030,432471.9422167389,4587679.295717681,41.43784665009436,2.191695745136286
﻿99400152408,Salsongu,Discoteques,,PTGE UTSET,11,6,La Sagrada Família,2,Eixample,8013,431285.1924862532,4583987.95845764,41.40449939478798,2.1779112755310126
﻿75990102529,Discoteca Performance Con Atxé,Discoteques,C,PROVENÇA,43,9,La Nova Esquerra De L'eixample,2,Eixample,8029,428694.0341302013,4581763.442622735,41.38423837354681,2.147176397035106
﻿99400384119,Bar Treze,Cocteleries|Xampanyeries,C,MAJOR DE SARRIÀ,115,23,Sarrià,5,Sarrià-sant Gervasi,8017,426505.02900942264,4583598.290252981,41.40056704225509,2.120776021419042
﻿75990053121,Club Sauvage,Bars I Pubs Musicals|Discoteques,PL,REIAL,7,2,El Barri Gòtic,1,Ciutat Vella,8002,431032.6484836029,4581334.131297817,41.38057557729068,2.175192398978123
﻿1033142110,Cerveseria Antibiòtic,Bars I Pubs Musicals,,ROCAFORT,225,9,La Nova Esquerra De L'eixample,2,Eixample,8029,428618.58585724176,4581793.695311581,41.38450415759101,2.1462705631276715
﻿75990118547,Cocteleria Gimlet,Cocteleries|Xampanyeries,C,SANTALÓ,46,26,Sant Gervasi - Galvany,5,Sarrià-sant Gervasi,8021,428557.5331766666,4583084.579703658,41.39612524673916,2.1453881871688365
﻿92274113445,Bar Musical Aire - Sala Diana,Bars I Pubs Musicals,,VALÈNCIA,236,8,L'antiga Esquerra De L'eixample,2,Eixample,8007,429804.79119244637,4582432.917322479,41.39036579067319,2.160382165443889
﻿99400621096,Discoteca Ku Barcelona,Discoteques|Restaurants,PASSEIG,MARÍTIM DE LA BARCELONETA - ORIOL BOHIGAS,38,3,La Barceloneta,1,Ciutat Vella,8003,432711.3501010566,4581638.770662862,41.38346152967782,2.195232897771743
﻿99400709288,Cocteleria Two Schmucks,Cocteleries|Xampanyeries,CARRER,DE JOAQUÍN COSTA,52,1,El Raval,1,Ciutat Vella,8001,430200.135,4581629.217,41.3831615294379,2.1652030614999225
﻿99400707531,Bar Soda Bus & Verne,Cocteleries|Xampanyeries|Restaurants,CARRER,D'ARIBAU,150,8,L'antiga Esquerra De L'eixample,2,Eixample,8036,429327.922,4582626.818,41.39207042591961,2.1546562141646937
﻿99400191214,Jamming Lounge,Bars I Pubs Musicals,C,VALLFOGONA,23,31,La Vila De Gràcia,6,Gràcia,8012,429618.031701056,4583898.794984372,41.40355210477575,2.1579781437681316
﻿99400628372,Bar Musical Acústic Sant Andreu,Bars I Pubs Musicals,,RIER SANT ANDREU,9,60,Sant Andreu,9,Sant Andreu,8030,432220.9987407308,4587237.818968381,41.433849280854886,2.1887417797790394
﻿99400608660,Restaurant The Alchemix,Cocteleries|Xampanyeries|Restaurants,CARRER,DE VALÈNCIA,212,8,L'antiga Esquerra De L'eixample,2,Eixample,8011,429687.77235372923,4582318.403415489,41.389324182392755,2.1589959188052603
﻿99400149745,Cocteleria Mareva,Cocteleries|Xampanyeries,CARRER,ARIBAU,54,8,L'antiga Esquerra De L'eixample,2,Eixample,8011,429769.0985923795,4582178.889793699,41.3880747357833,2.159984736019471
﻿75990210235,Bar Musical Samba Brasil *horta,Bars I Pubs Musicals,C,SANTES CREUS,20,43,Horta,7,Horta-guinardó,8031,429992.05845616525,4586837.864411428,41.43005584388977,2.162112239199044
﻿99400683088,Especiarium Bar,Cocteleries|Xampanyeries,CARRER,DE LA PRINCESA,29,4,"Sant Pere, Santa Caterina I La Ribera",1,Ciutat Vella,8003,431506.37032300996,4581898.97054382,41.385703390001815,2.1807934178472212
﻿75990129349,Bar Musical Les Qents Que J'aime,Bars I Pubs Musicals,C,VALÈNCIA,286,7,La Dreta De L'eixample,2,Eixample,8007,430182.95343999023,4582803.7387828855,41.39373856963519,2.164862225150066
﻿75990092643,Taverna Anglesa City Arms,Bars I Pubs Musicals,PL,NARCÍS OLLER,9,31,La Vila De Gràcia,6,Gràcia,8006,429401.2719594627,4583171.46103335,41.39698227132229,2.15547000350299
﻿75990292800,Bar Cafeteria Cinemateca,Bars I Pubs Musicals,C,PAU CLARIS,120,7,La Dreta De L'eixample,2,Eixample,8009,430430.78606363374,4582648.175351658,41.39235893793418,2.1678443194565924
﻿99400701255,Bar Trikini,Cocteleries|Xampanyeries,CARRER,DE PUJADES,226,68,El Poblenou,10,Sant Martí,8005,433355.545,4583809.105,41.40306280651095,2.2026978688852683
﻿99400709303,Bar Pantera Mambo Barcelona,Cocteleries|Xampanyeries,CARRER,DE JOAQUÍN COSTA,39,1,El Raval,1,Ciutat Vella,8001,430236.052,4581568.182,41.382614921981634,2.1656396074445134
﻿99400453809,Taberna Tio Carlos,Bars I Pubs Musicals|Restaurants,,PTGE GUTENBERG,7,1,El Raval,1,Ciutat Vella,8001,430988.54599531216,4580929.957233919,41.37693151786698,2.1747110351465655
﻿99400420446,Cocteleria Doble,Cocteleries|Xampanyeries,PG,GRÀCIA,116,31,La Vila De Gràcia,6,Gràcia,8008,429714.47691131785,4583193.816880521,41.397211059158614,2.159213702418187
﻿99400685836,Cocteleria Popular Gopnik,Cocteleries|Xampanyeries,CARRER,DE VALLFOGONA,23,31,La Vila De Gràcia,6,Gràcia,8012,429617.031,4583895.785,41.40352490735006,2.1579665230100913
﻿99400596754,Bar Pub The James Joyce,Bars I Pubs Musicals,C,CASP,92,7,La Dreta De L'eixample,2,Eixample,8010,431159.53395371157,4582781.91119606,41.39362616208608,2.176545204416195
﻿99400689374,Bar Musical Karaoke A Viva Voz *aribau,Bars I Pubs Musicals|Karaokes,CARRER,D'ARIBAU,103,8,L'antiga Esquerra De L'eixample,2,Eixample,8036,429485.772,4582433.469,41.390342854588354,2.156566649656205
﻿99400370686,Restaurant Lounge My Way,Bars I Pubs Musicals|Restaurants,C,HEURES,4,2,El Barri Gòtic,1,Ciutat Vella,8002,431040.4834029486,4581355.975086215,41.38077298942988,2.1752836048519177
﻿99400576585,Bar Musical Bar De Retro,Bars I Pubs Musicals,C,TORRENT DE L'OLLA,141,31,La Vila De Gràcia,6,Gràcia,8012,429416.9886531373,4583903.847893192,41.40357998898639,2.155572605881731
﻿99400592902,Bar Musical Revival,Bars I Pubs Musicals,,TRAV GRÀCIA,40,26,Sant Gervasi - Galvany,5,Sarrià-sant Gervasi,8021,428826.1225845401,4583000.087584528,41.39538807510398,2.1486107075773364
﻿99400576356,Bar Musical The Good Feeling,Bars I Pubs Musicals,C,CONSELL DE CENT,319,7,La Dreta De L'eixample,2,Eixample,8007,430051.29981755686,4582331.757360594,41.38947615246521,2.1633420803121344
﻿99400596517,Bar Musical Decode,Bars I Pubs Musicals,CARRER,ARIBAU,97,8,L'antiga Esquerra De L'eixample,2,Eixample,8036,429500.1001558895,4582423.234353561,41.39025193072827,2.1567392047205014
﻿99400596554,Bar Village Club,Bars I Pubs Musicals,C,VALÈNCIA,193,8,L'antiga Esquerra De L'eixample,2,Eixample,8011,429681.5954087265,4582342.525178844,41.38954089882291,2.15891924381821
﻿99400596605,Bar Nevermind,Cocteleries|Xampanyeries|Altres Esports|Instal·lacions Esportives,C,TALLERS,68,1,El Raval,1,Ciutat Vella,8001,430306.1404428086,4581838.208229281,41.3850530367574,2.1664467041469133
﻿99400191791,Sala Monasterio,Bars I Pubs Musicals|Discoteques,,MOLL MESTRAL,30,67,La Vila Olímpica Del Poblenou,10,Sant Martí,8005,433079.32742366707,4582141.287831986,41.38801827078488,2.1995779583018025
﻿99400576535,Bar Musical Le Standard,Bars I Pubs Musicals,C,TOPAZI,24,31,La Vila De Gràcia,6,Gràcia,8012,429358.6431845937,4584072.371237525,41.405092690581945,2.1548549884579242
﻿99400164991,Cocteleria Milk,Cocteleries|Xampanyeries,C,GIGNÀS,21,2,El Barri Gòtic,1,Ciutat Vella,8002,431447.29143563245,4581415.138591506,41.38134062208952,2.1801416242172973
﻿99400188606,Bar Musical Jazzman,Bars I Pubs Musicals,C,ROGER DE FLOR,238,7,La Dreta De L'eixample,2,Eixample,8025,430561.8275804471,4583664.071468712,41.401520101015535,2.1692951204960185
﻿99400128206,Pub Irlandès Mccarthy's Bar,Bars I Pubs Musicals|Cocteleries|Xampanyeries,,VIA LAIETANA,44,4,"Sant Pere, Santa Caterina I La Ribera",1,Ciutat Vella,8003,431104.55465619854,4581960.563198908,41.38622382435241,2.175981040153853
﻿98238104125,Pub Anglès The Black Horse,Bars I Pubs Musicals,C,ALLADA-VERMELL,16,4,"Sant Pere, Santa Caterina I La Ribera",1,Ciutat Vella,8003,431529.0005202287,4582009.623806381,41.3867019384485,2.1810515500594216
﻿75990100097,Bar Musical La Torre Rosa,Bars I Pubs Musicals|Cocteleries|Xampanyeries,C,FRANCESC TÀRREGA,22,62,El Congrés I Els Indians,9,Sant Andreu,8027,431521.0417841185,4586007.805813299,41.42271161168508,2.1805040229700476
﻿75990174513,Dome Club Barcelona,Discoteques|Salons De Ball,,LA RAMBLA,33,1,El Raval,1,Ciutat Vella,8002,431005.8807785509,4581164.967943482,41.37904967762586,2.1748915638842
﻿99400155586,Cocteleria Paradiso,Cocteleries|Xampanyeries,C,RERE PALAU,4,4,"Sant Pere, Santa Caterina I La Ribera",1,Ciutat Vella,8003,431746.78247091605,4581675.951106656,41.38371515010612,2.183693669972104
﻿92086021222,Bar Musical Miramelindo,Bars I Pubs Musicals,PG,BORN,15,4,"Sant Pere, Santa Caterina I La Ribera",1,Ciutat Vella,8003,431652.2743691521,4581777.094100496,41.38461809300949,2.1825520570069323
﻿92205145712,Jamboree,Bars I Pubs Musicals|Discoteques,,REIAL,17,2,El Barri Gòtic,1,Ciutat Vella,8002,431039.5634355078,4581240.772210454,41.37973531200141,2.1752857129194934
﻿75990477616,Bar Restaurant Hard Rock Café,Bars I Pubs Musicals|Restaurants,,DE CATALUNYA,21,2,El Barri Gòtic,1,Ciutat Vella,8002,430665.5809289465,4581933.64737183,41.38594368658605,2.170734333146683
﻿75990411185,Bar Musical Espai Barroc,Bars I Pubs Musicals,C,MONTCADA,20,4,"Sant Pere, Santa Caterina I La Ribera",1,Ciutat Vella,8003,431569.30617472006,4581782.02003564,41.384655406357375,2.1815592870237217
﻿99400209562,Bar Musical Paspartú,Bars I Pubs Musicals|Cocteleries|Xampanyeries,C,BASSES DE SANT PERE,14,4,"Sant Pere, Santa Caterina I La Ribera",1,Ciutat Vella,8003,431440.4953349483,4582233.490603965,41.38871070266591,2.179967750518544
﻿75990035678,Bar Musical Flann O'brien's,Bars I Pubs Musicals,C,CASANOVA,264,26,Sant Gervasi - Galvany,5,Sarrià-sant Gervasi,8021,428724.56060021126,4582864.471886125,41.39415764089053,2.1474119033744383
﻿75990079636,Disco Bar Joe's,Bars I Pubs Musicals,PG,SANT ANTONI,19,18,Sants,3,Sants-montjuïc,8014,427837.7026207502,4580990.168988224,41.37719743747399,2.137027809522119
﻿75990090372,Bar Musical Punto Bcn,Bars I Pubs Musicals|Cocteleries|Xampanyeries,C,MUNTANER,63,8,L'antiga Esquerra De L'eixample,2,Eixample,8011,429697.50231936557,4582030.244229293,41.38672968161117,2.1591457284804476
﻿99400355659,Sala Artte,Cocteleries|Xampanyeries,C,MUNTANER,83,8,L'antiga Esquerra De L'eixample,2,Eixample,8011,429589.05535033974,4582141.083125161,41.38771848445403,2.157835898445978
﻿75990106254,Bar Musical Lunatic Pub,Bars I Pubs Musicals,C,REGENT MENDIETA,38,20,La Maternitat I Sant Ramon,4,Les Corts,8028,426714.5195339192,4581027.800379251,41.377434861105804,2.123592869202551
﻿99400566604,Discoteca Downtown Barcelona,Discoteques,AV,DOCTOR MARAÑÓN,17,20,La Maternitat I Sant Ramon,4,Les Corts,8028,425954.3508295832,4581462.980966058,41.38128475384014,2.1144500230834193
﻿75990085638,Bar Musical Alfa,Bars I Pubs Musicals|Discoteques,,GRAN DE GRÀCIA,36,31,La Vila De Gràcia,6,Gràcia,8012,429518.72277531883,4583376.063062074,41.39883535054437,2.156851033797103
﻿99400224722,Discoteca The Roxy Blue Barcelona,Discoteques,C,CONSELL DE CENT,294,7,La Dreta De L'eixample,2,Eixample,8007,430123.68410567555,4582371.850984358,41.38984355391572,2.1642031567692506
﻿75990173036,Bar Musical Merbeyé,Bars I Pubs Musicals|Cocteleries|Xampanyeries,PL,DOCTOR ANDREU,1,25,Sant Gervasi - La Bonanova,5,Sarrià-sant Gervasi,8035,427412.01882243814,4585336.417500777,41.41630398556836,2.1314166957286984
﻿99400236992,Banker's Bar,Cocteleries|Xampanyeries,PG,GRÀCIA,38,7,La Dreta De L'eixample,2,Eixample,8007,430330.618063453,4582521.116570688,41.39120589068645,2.166660891862418
﻿75990097460,Slow Barcelona Cocktails & Boite,Bars I Pubs Musicals|Cocteleries|Xampanyeries|Restaurants,C,PARÍS,186,8,L'antiga Esquerra De L'eixample,2,Eixample,8036,429223.0467695367,4582799.534624344,41.393616799615536,2.1533816964183723
﻿75990103859,Sala Continental,Bars I Pubs Musicals,,PROVIDÈNCIA,30,31,La Vila De Gràcia,6,Gràcia,8024,429492.00086223084,4584200.57601512,41.40625909022358,2.156435362868843
﻿75990108061,Cocteleria Scotch Corner,Bars I Pubs Musicals|Cocteleries|Xampanyeries,C,SABINO ARANA,8,20,La Maternitat I Sant Ramon,4,Les Corts,8028,426946.99707700685,4581932.396600977,41.38560332812702,2.126263661425434
﻿99344155409,Bar Musical Tinta Roja,Bars I Pubs Musicals,,CREU DELS MOLERS,17,11,El Poble-sec,3,Sants-montjuïc,8004,429917.6414692608,4580639.193851997,41.37422015013126,2.1619393043662325
﻿99400070357,Diobar,Bars I Pubs Musicals,AV,MARQUÈS DE L'ARGENTERA,27,4,"Sant Pere, Santa Caterina I La Ribera",1,Ciutat Vella,8003,431896.1189790802,4581873.680207133,41.38550869705176,2.1854573309617873
﻿96309203840,Bar Musical Contraste,Karaokes,C,MUNTANER,130,8,L'antiga Esquerra De L'eixample,2,Eixample,8036,429389.29524267244,4582376.423787172,41.38982060472715,2.1554194440058154
﻿98049115349,Bar Musical Sol De Nit,Bars I Pubs Musicals,PL,SOL,9,31,La Vila De Gràcia,6,Gràcia,8012,429528.8176074066,4583709.519811766,41.4018395581395,2.1569329675708375
﻿99400142309,Venta Flamenco Barcelona,Tablaos Flamencs,C,MARQUÈS DE BARBERÀ,6,1,El Raval,1,Ciutat Vella,8001,430807.03271868464,4581132.444220301,41.378739671235934,2.172517468344374
﻿75990090931,Luz De Gas * En Remodelació,Teatres|Discoteques,C,MUNTANER,246,26,Sant Gervasi - Galvany,5,Sarrià-sant Gervasi,8021,428863.0962432487,4582914.907423271,41.39462416093732,2.1490629497204705
﻿96005085900,Bar Musical Barroc,Bars I Pubs Musicals,,REC,67,4,"Sant Pere, Santa Caterina I La Ribera",1,Ciutat Vella,8003,431729.2826191558,4581783.823050386,41.38468523760261,2.183472237976554
﻿75990076519,Bar Musical Basel 79,Bars I Pubs Musicals,C,LORETO,5,19,Les Corts,4,Les Corts,8029,428243.6063974709,4582286.213426169,41.388906721989734,2.141727913587879
﻿99400033861,Bar La Rouge Raval Barcelona,Bars I Pubs Musicals,RBLA,RAVAL,10,1,El Raval,1,Ciutat Vella,8001,430507.1416354895,4581128.228199938,41.37867585484985,2.1689318988499253
﻿277161249,Bar Musical Barcota,Bars I Pubs Musicals,,CANVIS NOUS,14,4,"Sant Pere, Santa Caterina I La Ribera",1,Ciutat Vella,8003,431596.366947643,4581604.994768747,41.38306329134129,2.181902891208439
﻿99400258359,Bar Musical Polaroid Bar,Bars I Pubs Musicals,C,CÒDOLS,29,2,El Barri Gòtic,1,Ciutat Vella,8002,431328.61263432127,4581195.497711201,41.37935225866503,2.1787473098682844
﻿75990272030,Bar Musical Inercia,Bars I Pubs Musicals,CARRER,ARIBAU,124,8,L'antiga Esquerra De L'eixample,2,Eixample,8036,429427.4368399792,4582528.871307723,41.39119699312116,2.1558578491989517
﻿75990263715,Discoteca Otto Zutz,Discoteques,CARRER,DE LINCOLN,15,26,Sant Gervasi - Galvany,5,Sarrià-sant Gervasi,8006,428948.2922793544,4583558.883159506,41.40043173862031,2.1500063862152055
﻿75990421116,Cocteleria Sips Drinkery House,Cocteleries|Xampanyeries,,MUNTANER,108,8,L'antiga Esquerra De L'eixample,2,Eixample,8036,429495.2452356046,4582267.997867222,41.38885334446811,2.1566992090909163
﻿75990355982,Solange Cocktails & Luxury Spirits,Cocteleries|Xampanyeries,CARRER,ARIBAU,143,8,L'antiga Esquerra De L'eixample,2,Eixample,8036,429275.386292542,4582648.919104709,41.39226486455007,2.1540252933766957
﻿99400194361,Opium Mar Bcn,Discoteques|Restaurants,PASSEIG,MARÍTIM DE LA BARCELONETA - ORIOL BOHIGAS,34,3,La Barceloneta,1,Ciutat Vella,8003,432732.0608994356,4581640.135653662,41.38347555576737,2.195480422364037
﻿99400158516,Creperia Creps Al Born,Cocteleries|Xampanyeries,PG,BORN,12,4,"Sant Pere, Santa Caterina I La Ribera",1,Ciutat Vella,8003,431664.8132534193,4581746.750399156,41.384345861055806,2.182705431420744
﻿99400158645,Karaoke Touch Music,Karaokes,C,JOAN MIRÓ,8,67,La Vila Olímpica Del Poblenou,10,Sant Martí,8005,432830.72779649583,4582359.99964859,41.389967430929744,2.1965805458831786
﻿99400169910,Bar De Copes Sub-rosa,Bars I Pubs Musicals,C,RAURIC,23,2,El Barri Gòtic,1,Ciutat Vella,8002,431075.69706060947,4581355.82209489,41.38077462878818,2.175704715642333
﻿75990075446,Bar Musical Samba Brasil *lepant,Bars I Pubs Musicals|Cocteleries|Xampanyeries,C,LEPANT,297,6,La Sagrada Família,2,Eixample,8025,431028.73994885094,4584128.493034929,41.40574318196722,2.1748274246067996
﻿99400168903,Cocteleria Nosé,Cocteleries|Xampanyeries,PG,BORN,21,4,"Sant Pere, Santa Caterina I La Ribera",1,Ciutat Vella,8003,431673.7541515353,4581820.438681841,41.385010309998805,2.182804044933376
﻿99400109274,Sala De Ball Nueva Época,Discoteques|Salons De Ball,,G.V. CORTS CATALANES,770,5,El Fort Pienc,2,Eixample,8013,431516.2243782248,4583317.584042905,41.398481256902706,2.1807508559953193
﻿99400204473,Sala-escenari,Discoteques,PL,REIAL,7,2,El Barri Gòtic,1,Ciutat Vella,8002,431032.6484836029,4581334.131297817,41.38057557729068,2.175192398978123
﻿99400105865,Bar Mau Mau,Cocteleries|Xampanyeries,C,FONTRODONA,33,11,El Poble-sec,3,Sants-montjuïc,8004,430315.483641683,4580439.644882374,41.372457419711424,2.166719244628817
﻿99400158658,Bar Musical Le Journal,Bars I Pubs Musicals|Cocteleries|Xampanyeries,C,FRANCISCO GINER,36,31,La Vila De Gràcia,6,Gràcia,8012,429684.2341516601,4583450.015375197,41.39951590311453,2.158822209002012
﻿99400073886,Flaherty's Irish Bar,Bars I Pubs Musicals,PL,JOAQUIM XIRAU I PALAU,3,2,El Barri Gòtic,1,Ciutat Vella,8002,431148.0054125235,4581087.362729956,41.37836288375026,2.1765998961527933
﻿99400161793,Bar Musical Vinilo,Bars I Pubs Musicals|Cocteleries|Xampanyeries,C,MATILDE,2,31,La Vila De Gràcia,6,Gràcia,8012,429533.68759069603,4583563.353238393,41.400523516371834,2.157008236365306
﻿99400172660,Bar Musical Ballbreak,Bars I Pubs Musicals,C,MATILDE,7,31,La Vila De Gràcia,6,Gràcia,8012,429525.8886669843,4583560.900260693,41.40050073976057,2.156915232720945
﻿99400476312,Discoteca Hyde Club,Discoteques,,PTGE DOMINGO,3,7,La Dreta De L'eixample,2,Eixample,8007,429986.8353690538,4582692.590826698,41.39272044860553,2.1625293888111754
﻿99400201862,Pub The George Payne Irish Bar,Bars I Pubs Musicals,PL,URQUINAONA,5,7,La Dreta De L'eixample,2,Eixample,8010,430856.5629912059,4582328.863554463,41.389519714259784,2.1729732125359145
﻿99400466415,Restaurant El Mamón,Cocteleries|Xampanyeries|Restaurants,,PTGE PERE CALDERS,2,10,Sant Antoni,2,Eixample,8015,430001.0616143822,4580848.904822081,41.37611621136471,2.1629125424066036
﻿92086037747,Discoteca Magic Rock Barcelona,Discoteques,PG,PICASSO,40,4,"Sant Pere, Santa Caterina I La Ribera",1,Ciutat Vella,8003,431859.2213275352,4581924.205706639,41.38596064157473,2.185010384223497
﻿99400566394,Bar Muy Buenas,Cocteleries|Xampanyeries,C,CARME,63,1,El Raval,1,Ciutat Vella,8001,430434.162292993,4581380.1687258575,41.3809386993451,2.1680303039281594
﻿99400596452,Restaurant Pur - Impur,Cocteleries|Xampanyeries|Restaurants,,PTGE CONCEPCIÓ,11,7,La Dreta De L'eixample,2,Eixample,8008,429783.6903017683,4582891.852840599,41.39449742202574,2.1600765925842613
﻿93221210635,Bar Musical Com-tu,Bars I Pubs Musicals,C,PERE IV,101,66,El Parc I La Llacuna Del Poblenou,10,Sant Martí,8018,432662.6082293134,4583365.772803061,41.39901209905584,2.194458002122968
﻿99400709297,33/45 Bar & Gallery,Cocteleries|Xampanyeries,CARRER,DE JOAQUÍN COSTA,4,1,El Raval,1,Ciutat Vella,8001,430380.941,4581401.872,41.38112957060895,2.1673913772174056
﻿75990028307,Cocteleria Trípode,Cocteleries|Xampanyeries,PG,BORN,17,4,"Sant Pere, Santa Caterina I La Ribera",1,Ciutat Vella,8003,431658.6203048667,4581789.8639771575,41.384733646790934,2.1826265074388886
﻿75990017964,Bar Musical Quilombo,Bars I Pubs Musicals,CARRER,ARIBAU,149,8,L'antiga Esquerra De L'eixample,2,Eixample,8036,429243.8495913319,4582685.57174052,41.39259220774479,2.1536438235753352
﻿119161015,Bar Zelig,Bars I Pubs Musicals,C,CARME,116,1,El Raval,1,Ciutat Vella,8001,430286.163757873,4581254.915917875,41.37979777676727,2.1662749099495224
﻿99400384107,Restaurant Club Bananas,Bars I Pubs Musicals|Restaurants,C,FUSINA,7,4,"Sant Pere, Santa Caterina I La Ribera",1,Ciutat Vella,8003,431707.94578534696,4581986.965063683,41.3865130691879,2.183194172957061
﻿92086009134,Bar Musical La Garrafa Dels Beatles,Bars I Pubs Musicals,C,JOAN GÜELL,150,19,Les Corts,4,Les Corts,8028,427381.8289095799,4581656.833383819,41.38316081043577,2.1314968356739312
﻿99400370747,La Sonora De Gràcia,Bars I Pubs Musicals,C,RIERA DE SANT MIQUEL,59,31,La Vila De Gràcia,6,Gràcia,8006,429364.2612833237,4583341.921362869,41.39851429481854,2.155007427407109
﻿75990281100,Sala Soda Acústic,Bars I Pubs Musicals,C,GUILLERIES,6,31,La Vila De Gràcia,6,Gràcia,8012,429536.92149917566,4583850.406439398,41.40310918221138,2.1570135071246894
﻿99400328189,Discoteca Sala Bloc,Discoteques,,RDA SANT PERE,19,7,La Dreta De L'eixample,2,Eixample,8010,430946.4491152968,4582339.764466468,41.38962561720019,2.1740469932816198
﻿75990271886,Sala Vivaldi,Bars I Pubs Musicals|Restaurants,C,LLANÇA,5,10,Sant Antoni,2,Eixample,8015,429032.0500477071,4580798.870108456,41.37558069287556,2.151331615488154
﻿75990044525,Sala De Ball Duvet,Discoteques|Salons De Ball,,CÒRSEGA,327,31,La Vila De Gràcia,6,Gràcia,8037,429784.97522604204,4583194.93588425,41.39722729649313,2.16005681745758
﻿99400723716,Espai Gastronòmic Born 14,Cocteleries|Xampanyeries|Restaurants,CARRER,DEL SABATERET,2,4,"Sant Pere, Santa Caterina I La Ribera",1,Ciutat Vella,8003,431616.765,4581882.682,41.38556607553018,2.1821154842136794
﻿75990162835,Bar Musical Ceferino,Bars I Pubs Musicals,,PAMPLONA,88,66,El Parc I La Llacuna Del Poblenou,10,Sant Martí,8018,432396.49086140393,4583135.320997933,41.39691415520172,2.1913005346827257
﻿75990029749,Cocteleria Caribbean Club,Cocteleries|Xampanyeries,C,SITGES,5,1,El Raval,1,Ciutat Vella,8001,430570.2078891694,4581773.206917951,41.38449042393953,2.169612136496942
﻿75990431415,Bar Musical New Underground,Bars I Pubs Musicals,C,AVIACIÓ,5,19,Les Corts,4,Les Corts,8029,427717.693544687,4582121.116925083,41.387372675522265,2.135457899083233
﻿75990473394,Harlem Jazz Club,Bars I Pubs Musicals,C,COMTESSA DE SOBRADIEL,8,2,El Barri Gòtic,1,Ciutat Vella,8002,431303.6288358852,4581398.03172931,41.38117429208919,2.1784255951980773
﻿75990473967,Restaurant Bar Margarita Blue,Bars I Pubs Musicals|Restaurants,C,JOSEP ANSELM CLAVÉ,6,2,El Barri Gòtic,1,Ciutat Vella,8002,431299.41394940985,4581042.7911958285,41.37797438181999,2.178415462353017
﻿75990364728,Sala Almo2bar,Discoteques,C,BRUNIQUER,59,31,La Vila De Gràcia,6,Gràcia,8024,429966.73026589915,4584127.229829011,41.40563998617621,2.1621229744263215
﻿99400504492,Sala De Festes La Paloma,Sales De Festes,C,TIGRE,27,1,El Raval,1,Ciutat Vella,8001,430116.65834523854,4581547.242029759,41.38241596057972,2.164214248059911
﻿75990368466,Sala Almodobar,Discoteques|Karaokes,C,GRASSOT,36,32,El Camp D'en Grassot I Gràcia Nova,6,Gràcia,8025,430419.2649171651,4583898.126156689,41.4036158257063,2.1675628794596205
﻿75990348434,Bar Café Del Born Nou,Bars I Pubs Musicals,PL,COMERCIAL,10,4,"Sant Pere, Santa Caterina I La Ribera",1,Ciutat Vella,8003,431744.772458145,4581835.2235519,41.38514950183597,2.183651690111131
﻿75990363296,Cocteleria Stereo 18,Cocteleries|Xampanyeries,PG,BORN,18,4,"Sant Pere, Santa Caterina I La Ribera",1,Ciutat Vella,8003,431673.66916370357,4581764.589226853,41.384507282533846,2.182809326824508
﻿99400631235,Jardín De Diana,Cocteleries|Xampanyeries,,G.V. CORTS CATALANES,668,7,La Dreta De L'eixample,2,Eixample,8010,430742.42305296846,4582560.368272319,41.39159498396441,2.17158164718764
﻿75990497941,The Philharmonic,Bars I Pubs Musicals|Restaurants,C,MALLORCA,204,8,L'antiga Esquerra De L'eixample,2,Eixample,8036,429633.541857684,4582429.110324025,41.39031653877783,2.1583344746486315
﻿99400603521,Restaurant Volta Al Món,Cocteleries|Xampanyeries|Restaurants,C,MUNTANER,51,8,L'antiga Esquerra De L'eixample,2,Eixample,8011,429768.4996444349,4581957.396954913,41.38607977244917,2.160003250535219
﻿75990331974,Bar Restaurant La Fourmi,Cocteleries|Xampanyeries|Restaurants,C,ALBA,2,31,La Vila De Gràcia,6,Gràcia,8012,429932.5066822093,4583724.464749885,41.402009444177104,2.1617601888921314
﻿75990491713,Discoteca Mojito Club,Discoteques,C,ROSSELLÓ,217,8,L'antiga Esquerra De L'eixample,2,Eixample,8008,429519.9028960545,4582744.846219884,41.39315031085824,2.156938618778249
﻿99400594182,Pub The Lima House,Bars I Pubs Musicals,C,CARDERS,31,4,"Sant Pere, Santa Caterina I La Ribera",1,Ciutat Vella,8003,431466.61311995925,4582042.620471749,41.38699381707336,2.180301705053117
﻿99400595721,Restaurant Nº30 Barceloneta,Cocteleries|Xampanyeries|Restaurants,PG,JOAN BORBÓ COMTE BARCELONA,30,3,La Barceloneta,1,Ciutat Vella,8003,432105.45008947107,4581153.527277775,41.37904016646946,2.1880414416045597
﻿75990662594,Santé Café,Cocteleries|Xampanyeries,,COMTE D'URGELL,171,9,La Nova Esquerra De L'eixample,2,Eixample,8036,428988.1451846547,4582172.751690471,41.38795088816933,2.1506456351999677
﻿75990699880,Bar Origginals Club,Bars I Pubs Musicals,C,GAIARRE,50,18,Sants,3,Sants-montjuïc,8014,428106.98309138184,4580573.682111285,41.37347039577246,2.1402971200287175
﻿92086026486,Bar Musical Kahala,Bars I Pubs Musicals,AV,DIAGONAL,537,19,Les Corts,4,Les Corts,8029,427937.6653274925,4582490.049372263,41.39071524124531,2.138044725094473
﻿99400061927,Bar Musical Bubblic Bar,Bars I Pubs Musicals,C,MARIÀ CUBÍ,183,26,Sant Gervasi - Galvany,5,Sarrià-sant Gervasi,8021,428515.03560702014,4583002.730493124,41.395384285949355,2.144889537768522
﻿75990334360,Sala Tarantos,Discoteques,PL,REIAL,17,2,El Barri Gòtic,1,Ciutat Vella,8002,431039.5634355078,4581240.772210454,41.37973531200141,2.1752857129194934
﻿75990334365,Restaurant Tablao De Carmen *poble Espanyol,Tablaos Flamencs|Restaurants,AV,FRANCESC FERRER I GUÀRDIA,13,11,El Poble-sec,3,Sants-montjuïc,8038,428641.3109980409,4580088.501961428,41.36914809976752,2.1467430809493484
﻿99400603947,Restaurant Tapas&beer,Karaokes|Restaurants,,G.V. CORTS CATALANES,640,7,La Dreta De L'eixample,2,Eixample,8007,430556.42589828715,4582378.179011769,41.389938026263984,2.169377970918539
﻿99400604213,Discoteca Pub Dixit 724,Bars I Pubs Musicals|Discoteques,C,PALLARS,115,66,El Parc I La Llacuna Del Poblenou,10,Sant Martí,8018,432454.36729675566,4583146.470900731,41.39701944281436,2.1919915652174313
﻿75990490801,Bar Musical La Concha,Bars I Pubs Musicals,C,GUÀRDIA,14,1,El Raval,1,Ciutat Vella,8001,430946.2673889262,4581015.209393106,41.37769573234636,2.1741957745420204
﻿75990145637,Bar Musical London Bar,Bars I Pubs Musicals,C,NOU DE LA RAMBLA,34,1,El Raval,1,Ciutat Vella,8001,430861.8411993425,4581066.376876397,41.37814933333809,2.1731803971737738
﻿99400676456,Bar Musical Sala Taro,Bars I Pubs Musicals,CARRER,DE ROSSEND ARÚS,9,18,Sants,3,Sants-montjuïc,8014,427865.44873259,4580598.64654719,41.37367362861198,2.137406174362691
﻿75990127095,Discoteca The Sutton Club Barcelona,Discoteques,C,TUSET,13,26,Sant Gervasi - Galvany,5,Sarrià-sant Gervasi,8006,429086.7060381811,4583066.955986965,41.39601335463815,2.1517196747040805
﻿75990176444,Bar Musical New Fizz Barcelona,Bars I Pubs Musicals|Cocteleries|Xampanyeries,,BALMES,83,8,L'antiga Esquerra De L'eixample,2,Eixample,8008,429793.54028656345,4582505.935607715,41.391022459311564,2.1602391416204614
﻿75990356127,Discoteca Distrito Diagonal,Bars I Pubs Musicals|Discoteques,AV,DIAGONAL,442,7,La Dreta De L'eixample,2,Eixample,8037,429840.42969062825,4583178.411056954,41.39708330346534,2.1607220347024616
﻿75990410263,Bar Musical Dow Jones,Bars I Pubs Musicals,,BRUC,97,7,La Dreta De L'eixample,2,Eixample,8009,430425.1070449777,4583005.351865947,41.395575417175515,2.1677353618439863
﻿92086017325,Discoteca Boulevard Culture Club,Discoteques,C,LA RAMBLA,27,1,El Raval,1,Ciutat Vella,8002,431037.28448098165,4581127.035320146,41.37871072162061,2.1752714032628853
﻿98289134934,Discoteca Undead Dark Club,Discoteques,C,VIOLANT HONGRIA REINA ARAGÓ,128,18,Sants,3,Sants-montjuïc,8028,427532.089527405,4581291.936977363,41.37988788044138,2.1333373713098354
﻿75990469788,Tablao Flamenco Cordobés,Tablaos Flamencs|Restaurants,C,LA RAMBLA,35,1,El Raval,1,Ciutat Vella,8002,430985.2909798677,4581159.520992446,41.37899885278571,2.1746459729448815
﻿99350182951,Discoteca Bachata Dance Club,Discoteques,C,CASANOVA,171,8,L'antiga Esquerra De L'eixample,2,Eixample,8036,428943.192529147,4582610.5534093715,41.39189003836696,2.1500566668254297
﻿99400069768,Bar Musical Gran Bodega Saltó,Bars I Pubs Musicals,C,BLESA,36,11,El Poble-sec,3,Sants-montjuïc,8004,430354.12825878983,4580473.745557417,41.37276789934408,2.1671773889372346
﻿99111164534,Discoteca New Kimbara,Discoteques,,TAJO,35,43,Horta,7,Horta-guinardó,8031,430015.6862378831,4586784.664934682,41.4295787565448,2.162401157494425
﻿75990099622,Virreina Bar,Bars I Pubs Musicals,PL,VIRREINA,1,31,La Vila De Gràcia,6,Gràcia,8024,429587.6329634282,4584056.307441932,41.40496809922289,2.1575961797742833
﻿75990489733,Restaurant Xampanyeria Xampú Xampany,Cocteleries|Xampanyeries|Restaurants,,G.V. CORTS CATALANES,702,7,La Dreta De L'eixample,2,Eixample,8010,430980.0886953818,4582792.905052226,41.393709800097646,2.1743976795738784
﻿99400069053,Bar Tequila Bom Bom,Bars I Pubs Musicals,C,NOU DE LA RAMBLA,103,1,El Raval,1,Ciutat Vella,8001,430639.4084236649,4580768.127742196,41.37544394974666,2.170554731879733
﻿97338091450,Discoteca Costa Breve,Discoteques,,ARIBAU,230,26,Sant Gervasi - Galvany,5,Sarrià-sant Gervasi,8006,428949.5283816947,4583017.266442895,41.39555371117258,2.150084728899705
﻿75990363427,Discoteca Nick,Discoteques|Karaokes,AV,MADRID,160,18,Sants,3,Sants-montjuïc,8028,427353.2842560367,4581337.49349434,41.380282066054605,2.1311937669942975
﻿96127115035,Associació Cultural Heliogàbal,Bars I Pubs Musicals,C,RAMÓN Y CAJAL,80,31,La Vila De Gràcia,6,Gràcia,8012,429806.60286977893,4583895.435056328,41.40353832948327,2.1602342909501346
﻿75990348460,Restaurant Cocteleria Belvedere,Cocteleries|Xampanyeries|Restaurants,,PTGE MERCADER,3,7,La Dreta De L'eixample,2,Eixample,8008,429735.3728090138,4582711.333591679,41.392867328199806,2.159519625636362
﻿92086024565,Bar Pub K.M.,Bars I Pubs Musicals,C,ALCOLEA,100,18,Sants,3,Sants-montjuïc,8014,427680.75808488915,4581278.240142884,41.3797778944172,2.1351167772678896
﻿99400084667,Discoteca Restaurant Japonès Shôko,Bars I Pubs Musicals|Discoteques|Restaurants,PASSEIG,MARÍTIM DE LA BARCELONETA - ORIOL BOHIGAS,36,3,La Barceloneta,1,Ciutat Vella,8003,432711.3501010566,4581638.770662862,41.38346152967782,2.195232897771743
﻿75990341591,Bar Musical Jazzpetit,Bars I Pubs Musicals,C,PROVENÇA,181,8,L'antiga Esquerra De L'eixample,2,Eixample,8036,429471.7544130599,4582510.703494228,41.391037249428315,2.156390006958693
﻿99400050261,Bar Musical Ginger,Bars I Pubs Musicals,C,PALMA DE SANT JUST,1,2,El Barri Gòtic,1,Ciutat Vella,8002,431315.83767921024,4581584.035916421,41.38285062054267,2.178550509469824
﻿75990279814,Bar Musical The Daily Telegraph,Bars I Pubs Musicals,C,PAU CLARIS,139,7,La Dreta De L'eixample,2,Eixample,8009,430257.90871357126,4582793.9898934625,41.3936572682303,2.1657598568272727
﻿96292161332,Bar Musical Terra,Bars I Pubs Musicals,PL,VIRREINA,5,31,La Vila De Gràcia,6,Gràcia,8024,429538.81843956106,4584047.133521229,41.404881196137076,2.157013298175274
﻿75990163301,Bar Musical Pastís,Bars I Pubs Musicals,,SANTA MÒNICA,4,1,El Raval,1,Ciutat Vella,8001,431026.4346171679,4580977.353778993,41.377361653351976,2.1751586961120193
﻿75990691308,Bar Cafeteria Cafè D'annunzio,Cocteleries|Xampanyeries,PL,VICENÇ MARTORELL,5,1,El Raval,1,Ciutat Vella,8001,430504.1545332285,4581763.872995466,41.384400652902265,2.1688232815018913
﻿99400182423,Bar Restaurant Café San Telmo,Cocteleries|Xampanyeries|Restaurants,C,BUENOS AIRES,60,8,L'antiga Esquerra De L'eixample,2,Eixample,8036,428819.9166916526,4582778.812741879,41.39339458663563,2.1485624883305787
﻿99400040582,Bar Restaurant Kasparo,Bars I Pubs Musicals,PL,VICENÇ MARTORELL,4,1,El Raval,1,Ciutat Vella,8001,430517.05040617083,4581772.062918194,41.3844755308749,2.1689765625507604
﻿75990415247,Bar Musical Karaoke A Viva Voz *rocafort,Bars I Pubs Musicals|Karaokes,,ROCAFORT,187,9,La Nova Esquerra De L'eixample,2,Eixample,8029,428753.07257901214,4581656.040683328,41.38327627376151,2.147895054441786
﻿75990670265,Cerveseria The Fastnet Irish Pub,Bars I Pubs Musicals,PG,JOAN BORBÓ COMTE BARCELONA,22,3,La Barceloneta,1,Ciutat Vella,8003,432087.7912487672,4581214.983674364,41.37959219784202,2.187823391218472
﻿99400096823,Bar Cocteleria 14 De La Rosa,Cocteleries|Xampanyeries,C,MARTÍNEZ DE LA ROSA,14,31,La Vila De Gràcia,6,Gràcia,8012,429760.9114106982,4583430.54558104,41.399347247454045,2.1597416525304935
﻿75990210543,Cocteleria Stinger,Cocteleries|Xampanyeries,C,CÒRSEGA,340,7,La Dreta De L'eixample,2,Eixample,8037,429871.2463764982,4583248.847376266,41.3977203867166,2.161082480808859
﻿99400576029,The Palace Bar,Bars I Pubs Musicals,C,CALÀBRIA,292,9,La Nova Esquerra De L'eixample,2,Eixample,8029,428394.16994294454,4582244.307866979,41.38854271202131,2.1435335515980345
﻿92086026825,Cocteleria Sucu Sucu,Cocteleries|Xampanyeries,C,PARÍS,150,8,L'antiga Esquerra De L'eixample,2,Eixample,8036,429015.3178312912,4582595.769568757,41.39176325465656,2.150921032655794
﻿95188195803,Bar Bobby's Free,Bars I Pubs Musicals,,PAU CLARIS,85,7,La Dreta De L'eixample,2,Eixample,8010,430666.1538322996,4582375.63305913,41.38992456175413,2.170690597891869
﻿99400632797,White Shisha Lounge,Discoteques,C,DOCTOR TRUETA,218,68,El Poblenou,10,Sant Martí,8005,433434.89973473176,4583317.242429333,41.398639303298225,2.203701225237378
﻿98335121727,Discoteca Antilla Salsa Barcelona,Cocteleries|Discoteques|Xampanyeries,,ARAGÓ,141,9,La Nova Esquerra De L'eixample,2,Eixample,8015,429316.1650751217,4581797.327422702,41.38459846390524,2.154612386674822
﻿99400592642,Bar Musical Ende,Bars I Pubs Musicals,C,CASANOVA,210,8,L'antiga Esquerra De L'eixample,2,Eixample,8036,428967.87128803437,4582616.539356155,41.39194613153293,2.150351127690915
﻿99400557452,Restaurant Cocteleria Ajoblanco,Cocteleries|Xampanyeries|Restaurants,C,TUSET,20,26,Sant Gervasi - Galvany,5,Sarrià-sant Gervasi,8006,429118.81572627416,4583066.391999199,41.396011105884874,2.1521038034617512
﻿75990481637,Bar Restaurant Menta,Karaokes|Restaurants,C,CASP,171,5,El Fort Pienc,2,Eixample,8013,431735.86723206594,4583376.352514069,41.39902924346256,2.1833714894413228
﻿75990121097,Bar Musical Woody,Bars I Pubs Musicals|Cocteleries|Xampanyeries,PL,SOL,7,31,La Vila De Gràcia,6,Gràcia,8012,429533.7175609925,4583703.8268683115,41.4017887133653,2.1569922437175233
﻿75990017884,Restaurant Season Tapas,Cocteleries|Xampanyeries|Restaurants,CARRER,ARIBAU,125,8,L'antiga Esquerra De L'eixample,2,Eixample,8036,429378.01731612196,4582548.743103525,41.391371633519185,2.155264470251063
﻿99400628265,Bar Musical Sinestesia,Bars I Pubs Musicals,C,SANTA CATERINA,52,18,Sants,3,Sants-montjuïc,8014,427758.4803331327,4581259.997337562,41.379620570361716,2.13604834950894
﻿99400628364,Bar Musical Brujas,Bars I Pubs Musicals,C,MASCARÓ,58,35,El Guinardó,7,Horta-guinardó,8032,430934.1374840401,4585999.235777524,41.42258418527982,2.1734821454983106
﻿99400593526,Bar Musical Carita Bonita,Bars I Pubs Musicals,C,BALMES,71,8,L'antiga Esquerra De L'eixample,2,Eixample,8007,429864.8906084569,4582432.239341565,41.390364927111946,2.1611010301766593
﻿99400027886,Cocteleria Upiaywasi,Cocteleries|Xampanyeries,C,ALLADA-VERMELL,11,4,"Sant Pere, Santa Caterina I La Ribera",1,Ciutat Vella,8003,431532.32548086456,4582044.234469315,41.387013949661196,2.181087402797952
﻿75990702934,Bar Musical Perifèric,Bars I Pubs Musicals,C,TAJO,5,43,Horta,7,Horta-guinardó,8031,430067.03872437193,4586857.173238792,41.43023628261143,2.163007312312215
﻿75990292924,Bar Musical Mediterráneo,Bars I Pubs Musicals,C,BALMES,129,8,L'antiga Esquerra De L'eixample,2,Eixample,8008,429585.6552624961,4582718.782487865,41.39292132355964,2.1577280772488945
﻿75990094018,Bar Musical Macarena Club,Bars I Pubs Musicals|Tablaos Flamencs,C,NOU DE SANT FRANCESC,5,2,El Barri Gòtic,1,Ciutat Vella,8002,431168.7311866856,4581206.184574373,41.379434851164376,2.1768342360455706
﻿75990114488,Bar Musical El Local,Bars I Pubs Musicals,,SANT EUSEBI,36,26,Sant Gervasi - Galvany,5,Sarrià-sant Gervasi,8006,428761.52909023856,4583576.413949229,41.40057310600014,2.1477703068298006
﻿75990217323,Ideal Cocktail's Bar,Cocteleries|Xampanyeries,CARRER,ARIBAU,89,8,L'antiga Esquerra De L'eixample,2,Eixample,8036,429561.41657302424,4582360.68097668,41.38969390638597,2.1574798185172854
﻿75990083497,Bar Breston Club,Bars I Pubs Musicals,,MARIÀ CUBÍ,111,26,Sant Gervasi - Galvany,5,Sarrià-sant Gervasi,8021,428744.9223400513,4583158.613021012,41.39680866255583,2.1476208307709657
﻿99400168325,Bar Musical Sugar,Bars I Pubs Musicals|Cocteleries|Xampanyeries,C,RAURIC,21,2,El Barri Gòtic,1,Ciutat Vella,8002,431071.1431040269,4581360.015053037,41.38081200341269,2.175649781408531
﻿75990331366,Restaurant La Bodeguita Del Poble *poble Espanyol,Bars I Pubs Musicals|Cocteleries|Discoteques|Xampanyeries|Restaurants,AV,FRANCESC FERRER GUÀRDIA,25,11,El Poble-sec,3,Sants-montjuïc,8038,428641.3109980409,4580088.501961428,41.36914809976752,2.1467430809493484
﻿75990157647,Sala Bóveda,Discoteques|Sales De Festes,C,ROC BORONAT,33,68,El Poblenou,10,Sant Martí,8005,433131.44468717737,4583298.141555787,41.39844208848969,2.2000735297868075
﻿75990014746,Bar Musical Alkimia Barcelona,Bars I Pubs Musicals,C,AMIGÓ,35,26,Sant Gervasi - Galvany,5,Sarrià-sant Gervasi,8021,428488.9498660061,4582976.8787397975,41.39514912999383,2.1445805836808725
﻿99400197039,Restaurant Cocteleria Ebano,Cocteleries|Xampanyeries,AV,PARAL·LEL,124,10,Sant Antoni,2,Eixample,8015,429920.71341658244,4580748.656784038,41.37520631584879,2.161963381002588
﻿99400320724,Restaurant Fonda Balmes,Cocteleries|Xampanyeries|Restaurants,C,BALMES,175,26,Sant Gervasi - Galvany,5,Sarrià-sant Gervasi,8006,429233.4776082338,4583084.527846298,41.39618454722477,2.15347315067931
﻿75990049580,Cocteleria Casablanca,Cocteleries|Xampanyeries,C,DOS DE MAIG,277,6,La Sagrada Família,2,Eixample,8025,431414.86912595795,4584481.192674128,41.40895286868664,2.1794066495873743
﻿99400165173,Bar Ultramarinos,Bars I Pubs Musicals|Cocteleries|Xampanyeries,C,SANT PAU,126,1,El Raval,1,Ciutat Vella,8001,430428.5894700885,4580785.83252604,41.375585213310615,2.168031886207854
﻿97037210405,Discoteca Bembé,Discoteques|Salons De Ball,,VILADOMAT,211,9,La Nova Esquerra De L'eixample,2,Eixample,8029,428944.757676148,4581842.425904741,41.38497193141125,2.1501654857940453
﻿94306084135,Shenanigans Irish Pub,Bars I Pubs Musicals,,MARQUÈS DE BARBERÀ,11,1,El Raval,1,Ciutat Vella,8001,430812.4886669058,4581126.264281739,41.378684479508266,2.1725834152970993
﻿96071124258,Bar Musical Arena Bar,Bars I Pubs Musicals,,CARASSA,4,4,"Sant Pere, Santa Caterina I La Ribera",1,Ciutat Vella,8003,431461.8612218968,4581768.964141289,41.38452866903529,2.180275833271697
﻿92086036670,Les Enfants,Discoteques,,GUÀRDIA,3,1,El Raval,1,Ciutat Vella,8001,430905.449777005,4581058.142965685,41.37807891865788,2.1737027964928317
﻿99400621024,Lounge Bar Restaurant Cirkuz Land,Cocteleries|Xampanyeries|Restaurants,C,COMERÇ,24,4,"Sant Pere, Santa Caterina I La Ribera",1,Ciutat Vella,8003,431556.44621277886,4582209.492861618,41.3885044366227,2.181357200961683
﻿75990682883,Bar Musical Konbe,Bars I Pubs Musicals,C,DEU I MATA,136,19,Les Corts,4,Les Corts,8029,427973.34799834475,4582407.559184711,41.389975480807344,2.1384812970883083
﻿99400019767,Discoteca Louise Se Va,Bars I Pubs Musicals,PL,EIVISSA,11,43,Horta,7,Horta-guinardó,8032,429870.62761662237,4586925.205535261,41.43083189686833,2.160648914863765
﻿97119201118,Bar Musical Baroke,Bars I Pubs Musicals,C,MALLORCA,492,6,La Sagrada Família,2,Eixample,8013,431445.1878836001,4584225.196176564,41.40664977805146,2.1797983650829615
﻿92086010064,Bar Musical Glaciar,Bars I Pubs Musicals,PL,REIAL,3,2,El Barri Gòtic,1,Ciutat Vella,8002,430993.027877585,4581291.41570665,41.38018745340412,2.1747234717977646
﻿99400595976,Restaurant La República,Cocteleries|Xampanyeries|Restaurants,C,MERCÈ,13,2,El Barri Gòtic,1,Ciutat Vella,8002,431457.90535949235,4581282.351889691,41.380145554013005,2.1802835682089925
﻿99400391689,Restaurant Los Juanele,Bars I Pubs Musicals|Tablaos Flamencs,C,ALDANA,4,10,Sant Antoni,2,Eixample,8015,430259.0051209427,4580777.340573991,41.3754940500759,2.1660050985516603
﻿99400319043,Sala Upload *poble Espanyol,Discoteques|Sales De Festes,AV,FRANCESC FERRER GUÀRDIA,13,11,El Poble-sec,3,Sants-montjuïc,8038,428641.3109980409,4580088.501961428,41.36914809976752,2.1467430809493484
﻿99400592750,Discoteca Mandarina Delux,Discoteques,C,VALÈNCIA,335,7,La Dreta De L'eixample,2,Eixample,8009,430555.2727399947,4583199.511998675,41.397335404089304,2.1692699976013006
﻿99400275889,Restaurant Cachitos Rambla,Cocteleries|Xampanyeries|Restaurants,RBLA,CATALUNYA,33,7,La Dreta De L'eixample,2,Eixample,8007,430216.5232101364,4582338.965324405,41.38955542363021,2.1653172890490997
﻿99400576353,Bar Musical Enigma,Bars I Pubs Musicals,C,TAQUÍGRAF GARRIGA,106,19,Les Corts,4,Les Corts,8029,427808.37763768923,4582240.087783582,41.38845234264695,2.1365282421498586
﻿99400593707,Cocteleria P41 Bar & Coctelarium,Cocteleries|Xampanyeries,C,MARINA,19,3,La Barceloneta,1,Ciutat Vella,8005,432827.2078939822,4582043.060740502,41.387112550035134,2.1965735931050236
﻿99400479262,Ebony Club,Discoteques,AV,DOCTOR MARAÑÓN,17,20,La Maternitat I Sant Ramon,4,Les Corts,8028,425954.3508295832,4581462.980966058,41.38128475384014,2.1144500230834193
﻿75990129129,Bar Musical Cafè De Les Arts,Bars I Pubs Musicals|Discoteques,C,VALÈNCIA,234,8,L'antiga Esquerra De L'eixample,2,Eixample,8007,429796.16127808683,4582424.468403122,41.39028894095287,2.160279931341367
﻿99400596558,Cocteleria Bloody Mary,Cocteleries|Xampanyeries,C,FERRER DE BLANES,3,31,La Vila De Gràcia,6,Gràcia,8012,429716.8228614024,4583323.669614361,41.39838080141985,2.1592266897591372
﻿99400596570,Bar Eldiset,Cocteleries|Xampanyeries,C,ANTIC DE SANT JOAN,3,4,"Sant Pere, Santa Caterina I La Ribera",1,Ciutat Vella,8003,431728.52861944516,4581818.519711634,41.384997676677536,2.1834593112159237
﻿75990123322,Elephant Restaurant & Lounge Club,Bars I Pubs Musicals|Restaurants,C,PAU CLARIS,92,7,La Dreta De L'eixample,2,Eixample,8010,430658.5888977612,4582414.77667565,41.39027646369253,2.1705956409199136
﻿99400592989,Cocteleria Caporal,Cocteleries|Xampanyeries,C,ESCUDELLERS,5,2,El Barri Gòtic,1,Ciutat Vella,8002,431090.81094959914,4581180.376810403,41.37919573871951,2.1759054004849636
﻿99400527954,Restaurant Tierra Brava,Cocteleries|Xampanyeries|Restaurants,CARRER,DE CASANOVA,133,8,L'antiga Esquerra De L'eixample,2,Eixample,8036,429314.39900114643,4582231.164188868,41.388505724567686,2.154540647914772
﻿99400328185,Discoteca La Biblio,Discoteques,C,MOIÀ,1,26,Sant Gervasi - Galvany,5,Sarrià-sant Gervasi,8006,429130.2216263695,4583014.482507974,41.39554458157321,2.152246304213008
﻿99400328186,Discoteca Bling Bling,Discoteques,C,TUSET,8,26,Sant Gervasi - Galvany,5,Sarrià-sant Gervasi,8006,429163.4563015655,4583023.228429616,41.39562628105143,2.152642796992005
﻿99400576566,Bar Mil Miralls,Cocteleries|Xampanyeries,C,PERLA,37,31,La Vila De Gràcia,6,Gràcia,8012,429622.28264824935,4583953.831448515,41.40404817002499,2.158022596085099
﻿75990352099,Bikini Barcelona,Bars I Pubs Musicals|Discoteques,AV,DIAGONAL,547,19,Les Corts,4,Les Corts,8029,427715.4005103696,4582384.6073536035,41.389745622801144,2.135399034259255
﻿99400596592,Irish Pub That's The Way,Bars I Pubs Musicals|Cocteleries|Xampanyeries,C,ENTENÇA,85,9,La Nova Esquerra De L'eixample,2,Eixample,8015,428984.5394190367,4581228.397905778,41.37944511035669,2.1507131940903763
﻿99400596636,Restaurant Nogg,Cocteleries|Xampanyeries|Restaurants,C,TUSET,30,26,Sant Gervasi - Galvany,5,Sarrià-sant Gervasi,8006,429070.92918128776,4583115.371511363,41.39644802383507,2.1515252971762155
﻿99400476331,Bar Cocteleria Elephanta,Cocteleries|Xampanyeries,C,TORRENT D'EN VIDALET,37,31,La Vila De Gràcia,6,Gràcia,8012,429681.5520608586,4584009.330919593,41.40455321964925,2.1587251561406275
﻿75990174572,Cocteleria Boadas,Cocteleries|Xampanyeries,C,TALLERS,1,1,El Raval,1,Ciutat Vella,8001,430616.42343522504,4581795.824706714,41.38469812254818,2.17016223371085
﻿99400592967,Bar Musical Nix,Bars I Pubs Musicals,C,ROSSELLÓ,156,8,L'antiga Esquerra De L'eixample,2,Eixample,8036,429341.6096717871,4582540.0871803695,41.39129047507136,2.154830040262932
﻿99400592993,Cocteleria San Basilio,Bars I Pubs Musicals|Cocteleries|Xampanyeries,AV,DIAGONAL,337,7,La Dreta De L'eixample,2,Eixample,8037,430440.19083367824,4583318.455814783,41.398396744162824,2.167879809006727
﻿99400328182,Discoteca Ker Club Barcelona,Discoteques,C,RAMON TRIAS FARGAS,2,3,La Barceloneta,1,Ciutat Vella,8005,432824.98493968684,4581922.371917791,41.38602535095431,2.196560390003333
﻿99400557479,Hall0 Cocktail Bar,Cocteleries|Xampanyeries,PG,GRÀCIA,75,7,La Dreta De L'eixample,2,Eixample,8008,429963.28356952505,4582829.1394896535,41.39394824496016,2.1622319089518474
﻿99400263461,Sala Fundació Màgica,Discoteques,C,ZAMORA,86,66,El Parc I La Llacuna Del Poblenou,10,Sant Martí,8018,432283.97297434474,4583038.134923481,41.39602936072267,2.1899655493540977
﻿99400259437,Marula Café Barcelona,Bars I Pubs Musicals|Discoteques,C,ESCUDELLERS,49,2,El Barri Gòtic,1,Ciutat Vella,8002,431174.24611649755,4581287.156785162,41.38016461627024,2.176890987722211
﻿92086038702,Bar Marsella,Bars I Pubs Musicals,C,SANT PAU,65,1,El Raval,1,Ciutat Vella,8001,430698.3507857741,4581082.246688013,41.3782782040133,2.17122360530803
﻿99400467597,City Hall Barcelona,Teatres|Discoteques,RBLA,CATALUNYA,2,7,La Dreta De L'eixample,2,Eixample,8007,430475.66273508983,4582127.404442111,41.38767240351558,2.168440833723857
﻿75990061273,Discoteca Blue Boîte,Discoteques,AV,DIAGONAL,477,8,L'antiga Esquerra De L'eixample,2,Eixample,8036,428579.6550397335,4582716.910295135,41.39281575435929,2.145696147455505
﻿333173100,Razzmatazz,Bars I Pubs Musicals|Discoteques,C,ALMOGÀVERS,122,66,El Parc I La Llacuna Del Poblenou,10,Sant Martí,8018,432380.38499909575,4583228.962081264,41.3977561996673,2.1910974309944122
﻿99400472118,Bar Musical Craft Barcelona,Bars I Pubs Musicals,C,PARADÍS,4,2,El Barri Gòtic,1,Ciutat Vella,8002,431185.09194298123,4581619.9115397055,41.38316256917568,2.1769828956771518
﻿99400486863,Tablao Framenco La Singla,Tablaos Flamencs|Restaurants,C,MARINA,181,5,El Fort Pienc,2,Eixample,8013,431471.61678588367,4583444.218798652,41.39961801633128,2.180202948835963
﻿99400574837,Restaurant Jok,Cocteleries|Xampanyeries|Restaurants,C,MALLORCA,275,7,La Dreta De L'eixample,2,Eixample,8008,430079.0884251337,4582920.445622871,41.394780684807124,2.1636064643362567
﻿99400476804,Sala Nota79,Cocteleries|Xampanyeries,C,VALLIRANA,79,27,El Putxet I El Farró,5,Sarrià-sant Gervasi,8006,428604.7255012288,4584106.775743702,41.40533595627382,2.145832103145853
﻿95171165310,Bar El Rouge,Bars I Pubs Musicals|Cocteleries|Xampanyeries,C,POETA CABANYES,21,11,El Poble-sec,3,Sants-montjuïc,8004,430232.249411409,4580631.323993907,41.37417660426226,2.16570197954838
﻿97310175200,Bar Musical Bare Nostrum,Bars I Pubs Musicals,,CONSELL DE CENT,384,7,La Dreta De L'eixample,2,Eixample,8009,430752.64286583074,4582987.075111473,41.39543907514898,2.1716550874973453
﻿75990264956,Cafeteria Restaurant Comillas,Bars I Pubs Musicals,C,MUNTANER,190,8,L'antiga Esquerra De L'eixample,2,Eixample,8036,429065.9323159956,4582706.67249738,41.39276658227224,2.1515134020456643
﻿99182194919,Discoteca Aire Chicas,Discoteques,,DIPUTACIÓ,233,7,La Dreta De L'eixample,2,Eixample,8007,430128.7810878638,4582219.056476287,41.388467827264044,2.1642817404498693
﻿75990489045,Bar Musical Honky Tonk Blues,Bars I Pubs Musicals,C,FINLÀNDIA,45,18,Sants,3,Sants-montjuïc,8014,427685.6911625662,4580693.773849043,41.37451427250659,2.1352454981434428
﻿99400050225,Restaurant Cafeteria Bòria Café *poble Espanyol,Bars I Pubs Musicals|Restaurants,AV,FRANCESC FERRER GUÀRDIA,13,11,El Poble-sec,3,Sants-montjuïc,8038,428641.3109980409,4580088.501961428,41.36914809976752,2.1467430809493484
﻿75990405384,Discoteca Moog,Discoteques,C,ARC DEL TEATRE,3,1,El Raval,1,Ciutat Vella,8001,431015.6677049715,4581059.725972741,41.37810263291218,2.1750205741124047
﻿75990618595,Café Royale,Bars I Pubs Musicals,C,NOU DE ZURBANO,3,2,El Barri Gòtic,1,Ciutat Vella,8002,431074.6750986884,4581218.4594354,41.37953735582486,2.1757081176225657
﻿96359123240,Escola De Ball La Clave,Discoteques,,TENOR MASINI,65,18,Sants,3,Sants-montjuïc,8028,427386.3939938093,4581060.9842003435,41.37779464410771,2.1316228231551433
﻿99400047732,Discoteca La Carpa Barcelona,Discoteques,AV,MANUEL AZAÑA,1,20,La Maternitat I Sant Ramon,4,Les Corts,8028,425597.7713995636,4580996.020445491,41.37704615291196,2.1102433249314747
﻿99400596688,Cocteleria Ventuno,Cocteleries|Xampanyeries,C,OR,21,31,La Vila De Gràcia,6,Gràcia,8012,429533.1275024366,4584010.879873595,41.40455417424451,2.1569494404772844
﻿99029084501,Bar Espit Chupito,Bars I Pubs Musicals,CARRER,ARIBAU,77,8,L'antiga Esquerra De L'eixample,2,Eixample,8036,429596.65923798445,4582324.8113340065,41.3893739264994,2.1579054835360956
﻿75990406306,Restaurant Nervión,Tablaos Flamencs|Restaurants,C,PRINCESA,2,4,"Sant Pere, Santa Caterina I La Ribera",1,Ciutat Vella,8003,431362.53419480904,4581733.134470803,41.38419749330031,2.1790920462060805
﻿75990722164,El Cafè De Les Delícies,Bars I Pubs Musicals,RBLA,RAVAL,47,1,El Raval,1,Ciutat Vella,8001,430637.18038285384,4581071.131783959,41.37817282477127,2.1704934158150695
﻿75990490788,Bar Restaurant La Higuera,Cocteleries|Xampanyeries|Restaurants,C,SICÍLIA,101,5,El Fort Pienc,2,Eixample,8013,431529.6953072974,4583022.850920699,41.39582783319832,2.1809453170978967
﻿92086026130,Bar Musical San Trop,Bars I Pubs Musicals,C,COMTE D'URGELL,90,8,L'antiga Esquerra De L'eixample,2,Eixample,8011,429571.60462865443,4581621.854188476,41.38304043886288,2.157687555012478
﻿92086018814,Discoteca New Beat,Bars I Pubs Musicals|Discoteques,,BALMES,86,7,La Dreta De L'eixample,2,Eixample,8008,429806.30515885336,4582523.412439848,41.39118098125482,2.160389785007188
﻿99400755810,Teatre Flamenc Barcelona,Teatres|Tablaos Flamencs,CARRER,DELS ABAIXADORS,6,4,"Sant Pere, Santa Caterina I La Ribera",1,Ciutat Vella,8003,431536.934,4581610.29,41.38310592859262,2.181191553452184
﻿97141154512,Bar Musical The Shamrock,Bars I Pubs Musicals,C,TALLERS,72,1,El Raval,1,Ciutat Vella,8001,430277.63471898594,4581842.708179488,41.385091096318206,2.1661052864565336
﻿99400119281,Bar Manchester *valldonzella,Bars I Pubs Musicals,C,VALLDONZELLA,40,1,El Raval,1,Ciutat Vella,8001,430186.9236379148,4581663.866906084,41.383472463708145,2.1650410792191233
﻿92086027652,Bar Musical Mirablau,Bars I Pubs Musicals|Discoteques,,DEL DOCTOR ANDREU,1,25,Sant Gervasi - La Bonanova,5,Sarrià-sant Gervasi,8035,427412.01882243814,4585336.417500777,41.41630398556836,2.1314166957286984
﻿99400147900,Pub Madame Jasmine,Cocteleries|Xampanyeries,RBLA,RAVAL,22,1,El Raval,1,Ciutat Vella,8001,430569.66004234285,4581056.810909886,41.378038017835415,2.169687665192524
﻿92086038273,Café Mudanzas,Bars I Pubs Musicals,C,VIDRIERIA,15,4,"Sant Pere, Santa Caterina I La Ribera",1,Ciutat Vella,8003,431704.5888732638,4581714.609720859,41.3840597566491,2.183184727608598
﻿99400119229,Sala The Club M7,Discoteques,C,MÈXIC,7,11,El Poble-sec,3,Sants-montjuïc,8004,428771.83863636525,4580523.525741696,41.373077771889385,2.1482525661503633
﻿99400176913,Milans Cocktail Barcelona,Cocteleries|Xampanyeries,CARRER,DE MILANS,7,2,El Barri Gòtic,1,Ciutat Vella,8002,431367.94922147127,4581344.385265973,41.38069660289495,2.179200834950244
﻿96352193513,Jazzsí Club Taller De Músics,Bars I Pubs Musicals,C,REQUESENS,2,1,El Raval,1,Ciutat Vella,8001,430103.56853193935,4581261.141819408,41.37983801034717,2.1640907128848847
﻿99400109578,Cocteleria Negroni,Cocteleries|Xampanyeries,C,JOAQUÍN COSTA,46,1,El Raval,1,Ciutat Vella,8001,430222.3733053401,4581605.734480736,41.382951958959076,2.165471705736474
﻿75990146806,Bar Musical New Chaps,Bars I Pubs Musicals,AV,DIAGONAL,365,7,La Dreta De L'eixample,2,Eixample,8037,430014.47799826716,4583183.6970414575,41.39714607914436,2.162803248441622
﻿75990225831,Bar Musical La Trabanqueta,Bars I Pubs Musicals,C,MALLORCA,329,7,La Dreta De L'eixample,2,Eixample,8037,430469.19055504445,4583303.205969501,41.39826190210018,2.168228438932372
﻿75990159282,Bar Musical Sabor Cubano *francisco Giner,Bars I Pubs Musicals,C,FRANCISCO GINER,32,31,La Vila De Gràcia,6,Gràcia,8012,429695.2460473937,4583436.95050492,41.39939919545339,2.158955446305032
﻿75990303269,Discoteca Twenties Barcelona,Bars I Pubs Musicals|Discoteques,C,ROSSELLÓ,208,7,La Dreta De L'eixample,2,Eixample,8008,429606.4530435233,4582799.322706445,41.39364854152425,2.1579674657996786
﻿75990702408,Restaurant Carpe Diem Lounge Club - Cdlc,Bars I Pubs Musicals|Restaurants,PASSEIG,MARÍTIM DE LA BARCELONETA - ORIOL BOHIGAS,32,3,La Barceloneta,1,Ciutat Vella,8003,432711.3501010566,4581638.770662862,41.38346152967782,2.195232897771743
﻿75990074105,Bar Musical Snooker Club Barcelona,Bars I Pubs Musicals|Cocteleries|Xampanyeries,C,ROGER DE LLÚRIA,42,7,La Dreta De L'eixample,2,Eixample,8009,430641.73901834065,4582624.323627702,41.392162332990836,2.1703701211751545
﻿75990212293,Discoteca Bailodromo,Discoteques,C,FELIP II,25,63,Navas,9,Sant Andreu,8027,432340.3589451016,4585432.435586386,41.41759885408637,2.190372312708387
﻿75990561637,La Cervesera Artesana,Bars I Pubs Musicals,C,SANT AGUSTÍ,14,31,La Vila De Gràcia,6,Gràcia,8012,429854.62852705724,4583301.219861956,41.39819063773138,2.160877642271708
﻿99400173593,Pepe Bar,Bars I Pubs Musicals,C,PAMPLONA,91,66,El Parc I La Llacuna Del Poblenou,10,Sant Martí,8018,432374.0490812544,4583126.493079564,41.396832757654764,2.1910330889967984
﻿99400746975,Discoteca Atlantic Sound Bcn,Discoteques,CARRER,DEL PLOM,1,12,La Marina Del Prat Vermell,3,Sants-montjuïc,8038,427685.27,4578160.312,41.351696251860766,2.135542512155757
﻿92086032966,Bar Musical Kahiki,Bars I Pubs Musicals,,G.V. CORTS CATALANES,581,8,L'antiga Esquerra De L'eixample,2,Eixample,8011,429981.3875895535,4581887.409682039,41.38546797813454,2.162557302390988
﻿96103120011,Discoteca Club Catwalk,Discoteques|Sales De Festes|Salons De Ball,C,RAMON TRIAS FARGAS,2,3,La Barceloneta,1,Ciutat Vella,8005,432824.98493968684,4581922.371917791,41.38602535095431,2.196560390003333
﻿99400742095,Restaurant Austin's Diner,Bars I Pubs Musicals|Restaurants,CARRER,DEL CARME,33,1,El Raval,1,Ciutat Vella,8001,430601.311,4581505.404,41.382081089638596,2.1700147680151964
﻿99400729800,Sala Safari Disco Club Barcelona,Bars I Pubs Musicals|Discoteques,CARRER,DE TARRAGONA,141,15,Hostafrancs,3,Sants-montjuïc,8014,428497.596,4581113.113,41.37836365659044,2.144903970491513
﻿99400727178,Bar Otaku Akihabar Bcn,Bars I Pubs Musicals|Restaurants,CARRER,D'EUGENI D'ORS,5,19,Les Corts,4,Les Corts,8028,427157.676,4581757.787,41.38404979494545,2.128804158661301
﻿95327105318,Discoteca Wolf Barcelona,Discoteques,,ALMOGÀVERS,88,66,El Parc I La Llacuna Del Poblenou,10,Sant Martí,8018,432170.6260781276,4583026.672012588,41.3959165649819,2.1886110824901572
﻿99400204105,Bar Musical Pony Café,Bars I Pubs Musicals,C,PORTAL NOU,23,4,"Sant Pere, Santa Caterina I La Ribera",1,Ciutat Vella,8003,431498.8367669425,4582238.02357156,41.388756500336285,2.180664984498364
﻿99400629064,Bar Musical Robadors 23,Bars I Pubs Musicals,C,ROBADOR,23,1,El Raval,1,Ciutat Vella,8001,430662.2091048105,4581239.375146901,41.37969029923238,2.1707734546495163
﻿99400370736,Bar Musical Número 9,Bars I Pubs Musicals,C,VIDRIERIA,9,4,"Sant Pere, Santa Caterina I La Ribera",1,Ciutat Vella,8003,431682.18908846675,4581727.213593327,41.384171374305986,2.1829154304659037
﻿99400377990,Bar Musical Summum Nightbar,Bars I Pubs Musicals,CARRER,ARIBAU,66,8,L'antiga Esquerra De L'eixample,2,Eixample,8011,429687.79836513475,4582262.613959856,41.38882170822292,2.1590027056469863
﻿99400175216,Bar Musical Pub Sotavent,Bars I Pubs Musicals|Cocteleries|Xampanyeries,C,MAJOR DE SARRIÀ,61,23,Sarrià,5,Sarrià-sant Gervasi,8017,426637.25678251695,4583333.174867562,41.39819134208596,2.122389815504967
﻿99400628268,L'ex-designer Project Bar,Bars I Pubs Musicals,C,ENTENÇA,3,10,Sant Antoni,2,Eixample,8015,429420.3412752228,4580782.890345745,41.37547091723156,2.155976362002667
﻿99400628369,Bar Musical Ruta 66,Bars I Pubs Musicals,C,SÒCRATES,66,60,Sant Andreu,9,Sant Andreu,8030,431990.89201537863,4587032.782919874,41.43198313994531,2.186010931230324
﻿99400746616,Espai Cultural I Gastronòmic Casa Montjuïc,Cocteleries|Xampanyeries|Restaurants,CARRER,DE VILA I VILÀ,63,11,El Poble-sec,3,Sants-montjuïc,8004,430562.56,4580591.78,41.37384901072978,2.169656036452183
﻿99400698702,Discoteca Arena Xperience,Discoteques,,RDA SANT PERE,19,7,La Dreta De L'eixample,2,Eixample,8010,430946.4491152968,4582339.764466468,41.38962561720019,2.1740469932816198
﻿99400604398,Pub Ambarito,Bars I Pubs Musicals,C,CONSELL DE CENT,193,8,L'antiga Esquerra De L'eixample,2,Eixample,8011,429472.4245631081,4581763.798782538,41.38431019706196,2.1564849782358957
﻿99400604399,,Bars I Pubs Musicals,C,CONSELL DE CENT,193,8,L'antiga Esquerra De L'eixample,2,Eixample,8011,429472.4245631081,4581763.798782538,41.38431019706196,2.1564849782358957
﻿99400706558,Cocteleria Nola,Cocteleries|Xampanyeries,CARRER,DE SANTA TERESA,1,31,La Vila De Gràcia,6,Gràcia,8012,429752.334,4583289.827,41.398079096179615,2.159655379839964
﻿75990018326,Discoteca Barroko's,Discoteques|Salons De Ball,,ARIBAU,242,26,Sant Gervasi - Galvany,5,Sarrià-sant Gervasi,8006,428921.2846501446,4583045.731159285,41.395807586298254,2.1497435681182577
﻿75990022850,Bar Musical Paco Moreno,Bars I Pubs Musicals,C,BALMES,56,7,La Dreta De L'eixample,2,Eixample,8007,429992.251391163,4582333.333332996,41.38948520950373,2.1626356910049322
﻿75990102820,Bar Musical La Fira,Bars I Pubs Musicals,C,PROVENÇA,171,8,L'antiga Esquerra De L'eixample,2,Eixample,8036,429403.4470909916,4582443.77613297,41.39042846573138,2.1555808478657106
﻿75990018325,Restaurant El Patio Andaluz,Tablaos Flamencs|Restaurants,C,ROCAFORT,231,9,La Nova Esquerra De L'eixample,2,Eixample,8029,428571.32330639206,4581842.2148281075,41.38493696007484,2.145699638113742
﻿75990028309,Cocteleria El Copetín,Bars I Pubs Musicals|Cocteleries|Xampanyeries,PG,BORN,19,4,"Sant Pere, Santa Caterina I La Ribera",1,Ciutat Vella,8003,431668.3562062309,4581809.505787444,41.38491138203342,2.182740723733004
﻿75990017982,Bar Musical Le Cyrano,Bars I Pubs Musicals,,ARIBAU,154,8,L'antiga Esquerra De L'eixample,2,Eixample,8036,429314.4579137637,4582644.40215695,41.392227616896704,2.1544931281410387
﻿99400701254,Bar Trash Talk,Bars I Pubs Musicals,CARRER,DE PERE IV,244,68,El Poblenou,10,Sant Martí,8005,433111.544,4584037.525,41.40509985905568,2.1997537893241734
﻿99400694323,Restaurant Jacqueline Barcelona,Cocteleries|Xampanyeries|Restaurants,CARRER,D'ENRIC GRANADOS,66,8,L'antiga Esquerra De L'eixample,2,Eixample,8008,429511.873,4582629.742,41.392112904203124,2.156855974129123
﻿99400689376,Bar Musical Karaoke A Viva Voz *muntaner,Bars I Pubs Musicals|Karaokes,CARRER,DE MUNTANER,414,26,Sant Gervasi - Galvany,5,Sarrià-sant Gervasi,8006,428197.241,4583590.007,41.40064533863631,2.141018810755501
﻿99400698847,Bar Olímpic,Cocteleries|Xampanyeries,CARRER,DE JOAQUÍN COSTA,25,1,El Raval,1,Ciutat Vella,8001,430288.269,4581504.093,41.382042218836446,2.1662714200967508
﻿321103526,Bar Musical Síncopa,Bars I Pubs Musicals|Cocteleries|Xampanyeries,C,AVINYÓ,35,2,El Barri Gòtic,1,Ciutat Vella,8002,431354.6403579061,4581309.89959986,41.38038486495567,2.1790455907532307
﻿99400682961,Restaurant Gala Barcelona,Cocteleries|Xampanyeries|Restaurants,CARRER,DE PROVENÇA,286,7,La Dreta De L'eixample,2,Eixample,8008,429851.61487073,4582854.51398829,41.39416705168491,2.160893343821387
﻿1082172815,Sala B,Discoteques,C,MUNTANER,246,26,Sant Gervasi - Galvany,5,Sarrià-sant Gervasi,8021,428863.0962432487,4582914.907423271,41.39462416093732,2.1490629497204705
﻿75990023351,Bar Musical Velvet,Bars I Pubs Musicals,C,BALMES,161,8,L'antiga Esquerra De L'eixample,2,Eixample,8008,429400.5370213735,4582910.401579863,41.394630938958436,2.1554916493596523
﻿1211173854,Bar Café Berlín,Bars I Pubs Musicals,C,MUNTANER,240,26,Sant Gervasi - Galvany,5,Sarrià-sant Gervasi,8021,428900.64288464945,4582885.2007209705,41.39435992415567,2.1495155215376536
﻿99400683060,Cocteleria Libertine,Cocteleries|Xampanyeries,GRAN VIA,DE LES CORTS CATALANES,700,7,La Dreta De L'eixample,2,Eixample,8010,430971.17978374514,4582784.213135202,41.39363075012316,2.174292114308535
﻿75990165912,Restaurant Cómico-cómico,Bars I Pubs Musicals|Restaurants,CARRER,ARIBAU,87,8,L'antiga Esquerra De L'eixample,2,Eixample,8036,429567.68551344855,4582354.20304119,41.38963611084167,2.157555547149624
﻿75990709870,Discoteca Q Pedralbes,Discoteques,C,SANTA CATERINA DE SIENA,28,21,Pedralbes,4,Les Corts,8034,425641.6556531787,4582442.418339827,41.39007726397428,2.1105905629941457
﻿75990042698,Dmen's Gay Bar,Bars I Pubs Musicals,C,CONSELL DE CENT,257,8,L'antiga Esquerra De L'eixample,2,Eixample,8011,429763.37167524453,4582048.597063893,41.38690073332765,2.159931351021674
﻿1033153036,Bar Restaurant El Último Agave,Bars I Pubs Musicals|Restaurants,C,ARAGÓ,193,8,L'antiga Esquerra De L'eixample,2,Eixample,8011,429678.8084740157,4582159.741961771,41.38789438953104,2.1589071315097383
﻿75990210375,Big Bang Bar,Bars I Pubs Musicals,C,BOTELLA,7,1,El Raval,1,Ciutat Vella,8001,430259.17203559383,4581181.198631838,41.37913148915533,2.165960625122118
﻿75990405246,Karaoke Weekend,Karaokes,C,DIPUTACIÓ,365,7,La Dreta De L'eixample,2,Eixample,8009,431020.7052393267,4583092.088141839,41.39640793211598,2.1748493985193593
﻿99400319608,Le Pop Bar,Bars I Pubs Musicals,,LA RAMBLA,111,1,El Raval,1,Ciutat Vella,8002,430679.41584105534,4581707.488581708,41.38390793676847,2.170925662996933
﻿99400723543,Mariposa Negra Cocktail Bar,Cocteleries|Xampanyeries,,DE LES OLLES,4,4,"Sant Pere, Santa Caterina I La Ribera",1,Ciutat Vella,8003,431697.597,4581676.918,41.383719684317704,2.183105361640218
﻿99400603677,Bar Guayoyo,Cocteleries|Xampanyeries,PL,CAMP,2,25,Sant Gervasi - La Bonanova,5,Sarrià-sant Gervasi,8022,427809.9522630404,4583915.179443469,41.40353935182329,2.136347375782836
﻿75990713121,Bar Manchester *milans,Bars I Pubs Musicals,C,MILANS,5,2,El Barri Gòtic,1,Ciutat Vella,8002,431353.90235854493,4581341.934287042,41.380673329300826,2.1790331368717992
﻿99400621820,Espai Abaixadors10,Cocteleries|Xampanyeries,C,ABAIXADORS,10,4,"Sant Pere, Santa Caterina I La Ribera",1,Ciutat Vella,8003,431538.33751000994,4581613.800671061,41.38313766764445,2.1812079409287026
﻿99400632799,Golden Shisha Lounge,Discoteques,C,PLATÓ,13,26,Sant Gervasi - Galvany,5,Sarrià-sant Gervasi,8006,428261.85994907224,4583557.312029911,41.400356636257655,2.141795642545872
﻿75990102799,Bar Musical Aloha,Bars I Pubs Musicals|Cocteleries|Xampanyeries,C,PROVENÇA,159,8,L'antiga Esquerra De L'eixample,2,Eixample,8036,429328.33383638016,4582370.758829709,41.38976422851548,2.154691016573122
﻿99400692513,Club Red 58,Bars I Pubs Musicals|Discoteques,CARRER,DEL CONSELL DE CENT,280,7,La Dreta De L'eixample,2,Eixample,8007,430066.055,4582313.671,41.389314537679645,2.1635206374326703
﻿99400758084,Cocteleria Dry Martini,Cocteleries|Xampanyeries,CARRER,D'ARIBAU,162,8,L'antiga Esquerra De L'eixample,2,Eixample,8036,429253.328,4582702.68,41.392747129473754,2.153755190091385
﻿75990017166,Bar Kentucky,Bars I Pubs Musicals,,ARC DEL TEATRE,11,1,El Raval,1,Ciutat Vella,8001,430989.65596616414,4581019.4293607725,41.37773746261081,2.1747141205093774
﻿99400637674,Restaurant & Cocktails Oda,Cocteleries|Xampanyeries|Restaurants,,MARINA,19,3,La Barceloneta,1,Ciutat Vella,8005,432827.09889501915,4582043.173739377,41.38711355868508,2.19657227700629
﻿75990210217,Bar Musical El Cangrejo,Bars I Pubs Musicals,C,MONTSERRAT,9,1,El Raval,1,Ciutat Vella,8001,431006.1228158985,4580971.390833054,41.377306205542666,2.1749164942038908
﻿75990150522,Bar Musical El Col·leccionista,Bars I Pubs Musicals,C,TORRENT DE LES FLORS,46,31,La Vila De Gràcia,6,Gràcia,8024,429839.56649428466,4584160.4804783985,41.405928374325434,2.160597890969117
﻿75990042641,Plata Cocktail Bar,Cocteleries|Xampanyeries,CARRER,DEL CONSELL DE CENT,233,8,L'antiga Esquerra De L'eixample,2,Eixample,8011,429652.6967737386,4581940.154099099,41.38591435345882,2.1586203473449914
﻿75990210325,Sala Vol,Discoteques,,SANCHO DE AVILA,78,66,El Parc I La Llacuna Del Poblenou,10,Sant Martí,8018,432388.78287924017,4583419.360225727,41.39947176748643,2.1911766196332345
﻿99400754221,Cocteleria Focacha,Cocteleries|Xampanyeries,CARRER,DE TUSET,17,26,Sant Gervasi - Galvany,5,Sarrià-sant Gervasi,8006,429073.183,4583076.294,41.39609626603632,2.151556832415329
﻿99400604555,Restaurant Feroz,Cocteleries|Xampanyeries|Restaurants,C,TUSET,27,26,Sant Gervasi - Galvany,5,Sarrià-sant Gervasi,8006,429020.9196640189,4583130.679351545,41.396581483249285,2.150925337044923
﻿92086018833,Bar Musical Berimbau,Bars I Pubs Musicals,PG,BORN,17,4,"Sant Pere, Santa Caterina I La Ribera",1,Ciutat Vella,8003,431658.62430482643,4581789.8699771,41.38473370117052,2.1826265545975816
﻿75990177420,Discoteca Karma,Discoteques,PL,REIAL,10,2,El Barri Gòtic,1,Ciutat Vella,8002,431067.4681526092,4581297.291664487,41.38024675735264,2.1756129701103344
﻿75990331543,Bar Cocteleria El Born,Cocteleries|Xampanyeries,PG,BORN,26,4,"Sant Pere, Santa Caterina I La Ribera",1,Ciutat Vella,8003,431688.4300136413,4581796.922914294,41.3847997564601,2.1829822055095467
﻿75990121093,Bar Musical La Kontra De Gràcia,Bars I Pubs Musicals|Discoteques,,DEL SOL,3,31,La Vila De Gràcia,6,Gràcia,8012,429528.463,4583670.155,41.4014849827007,2.156933308268389
﻿75990131581,Bar L'antiquari,Cocteleries|Xampanyeries,C,VEGUER,13,2,El Barri Gòtic,1,Ciutat Vella,8002,431230.2124866366,4581706.445704373,41.383945815176865,2.1775126566064578
﻿99400695903,Jamboree 3,Bars I Pubs Musicals|Discoteques,,REIAL,18,2,El Barri Gòtic,1,Ciutat Vella,8002,431029.326,4581247.024,41.379790742572375,2.1751625816640954
﻿99400746413,Restaurant L'estació Espai Gastronòmic,Sales De Festes|Restaurants,,AVINGUDA DEL MARQUÈS DE L'ARGENTERA,6,4,"Sant Pere, Santa Caterina I La Ribera",1,Ciutat Vella,8003,431872.947,4581757.293,41.38445846777905,2.185193301193823
