stop_id,stop_code,stop_name,stop_desc,stop_desc_number,stop_desc_name,stop_lat,stop_lon,zone_id,stop_url,location_type,parent_station,stop_timezone,wheelchair_boarding
par_8_09568,09568,ESTACIÓN-ESTACIÓNARANJUEZ,Calle de la Estación 2,2,Calle de la Estación,40.0345268249512,-3.61783719062805,C1,http://www.crtm.es,0,,Europe/Madrid,2
par_8_09571,09571,GOBERNADOR-MERCADO DE ABASTOS,Calle del Gobernador 55,55,Calle del Gobernador,40.0326385498047,-3.60506820678711,C1,http://www.crtm.es,0,,Europe/Madrid,2
par_8_09572,09572,ABASTOS-FLORIDA,Calle de Abastos 13,13,Calle de Abastos,40.0320510864258,-3.60703206062317,C1,http://www.crtm.es,0,,Europe/Madrid,2
par_8_09573,09573,GOBERNADOR-VALERAS,Calle del Gobernador 1,1,Calle del Gobernador,40.032772064209,-3.60856199264526,C1,http://www.crtm.es,0,,Europe/Madrid,2
par_8_09576,09576,ABASTOS-AYUNTAMIENTO,Calle de Abastos 52,52,Calle de Abastos,40.0319328308105,-3.60386633872986,C1,http://www.crtm.es,0,,Europe/Madrid,2
par_8_09577,09577,GLORIETA NUEVO ARANJUEZ-CUARTELES,Glorieta del Nuevo Aranjuez 1,1,Glorieta del Nuevo Aranjuez,40.0324363708496,-3.5931932926178,C1,http://www.crtm.es,0,,Europe/Madrid,2
par_8_09583,09583,REY-AUDITORIO,Calle del Rey 48,48,Calle del Rey,40.0323905944824,-3.60051822662354,C1,http://www.crtm.es,0,,Europe/Madrid,2
par_8_09584,09584,FOSO-GOBERNADOR,Calle del Foso 82,82,Calle del Foso,40.0323944091797,-3.59809231758118,C1,http://www.crtm.es,0,,Europe/Madrid,2
par_8_09585,09585,FOSO-INFANTAS,Calle del Foso 17,17,Calle del Foso,40.0333786010742,-3.59798359870911,C1,http://www.crtm.es,0,,Europe/Madrid,2
par_8_09588,09588,PRÍNCIPE-IGLESIA,Calle del Príncipe 73,73,Calle del Príncipe,40.0357513427734,-3.59848499298096,C1,http://www.crtm.es,0,,Europe/Madrid,2
par_8_09590,09590,MORERAS-LA BARRACA DE FEDERICO GªLORCA,Calle de las Moreras 20,20,Calle de las Moreras,40.0354804992676,-3.59678292274475,C1,http://www.crtm.es,0,,Europe/Madrid,2
par_8_09591,09591,MORERAS-ANCHA,Calle de las Moreras 47,47,Calle de las Moreras,40.035457611084,-3.59477853775024,C1,http://www.crtm.es,0,,Europe/Madrid,2
par_8_09592,09592,MORERAS-ANCHA,Calle de las Moreras 57,57,Calle de las Moreras,40.0353317260742,-3.59467196464539,C1,http://www.crtm.es,0,,Europe/Madrid,2
par_8_09593,09593,MORERAS-PRIMERO DE MAYO,Calle de las Moreras 30,30,Calle de las Moreras,40.035213470459,-3.59281897544861,C1,http://www.crtm.es,0,,Europe/Madrid,2
par_8_09594,09594,MORERAS-PRIMERO DE MAYO,Calle de las Moreras 121,121,Calle de las Moreras,40.0353126525879,-3.59279632568359,C1,http://www.crtm.es,0,,Europe/Madrid,2
par_8_09597,09597,MORERAS-COLEGIO,Calle de las Moreras 46,46,Calle de las Moreras,40.0349349975586,-3.58926510810852,C1,http://www.crtm.es,0,,Europe/Madrid,2
par_8_09602,09602,PRIMERO DE MAYO-POLIDEPORTIVO,Calle del Primero de Mayo 3,3,Calle del Primero de Mayo,40.0340003967285,-3.59256219863892,C1,http://www.crtm.es,0,,Europe/Madrid,2
par_8_09640,09640,ABASTOS-CONCHA,Calle de Abastos 94 A,94A,Calle de Abastos,40.0317115783691,-3.60102796554565,C1,http://www.crtm.es,0,,Europe/Madrid,2
par_8_16102,16102,MORERAS-AUGUSTO MORENO,Calle de las Moreras 219,219,Calle de las Moreras,40.0346069335938,-3.584632396698,C1,http://www.crtm.es,0,,Europe/Madrid,2
par_8_16754,16754,GOBERNADOR-ALMÍBAR,Calle del Gobernador 105,105,Calle del Gobernador,40.0324363708496,-3.60239410400391,C1,http://www.crtm.es,0,,Europe/Madrid,2
par_8_16763,16763,GLORIETA NUEVO ARANJUEZ-PRIMERO DE MAYO,Glorieta del Nuevo Aranjuez 11,11,Glorieta del Nuevo Aranjuez,40.0324859619141,-3.59264302253723,C1,http://www.crtm.es,0,,Europe/Madrid,2
par_8_16768,16768,MORERAS-JULIO VALDEÓN,Calle de las Moreras 219,219,Calle de las Moreras,40.0347328186035,-3.58466863632202,C1,http://www.crtm.es,0,,Europe/Madrid,2
par_8_17126,17126,PRIMERO DE MAYO-POLIDEPORTIVO,Calle del Primero de Mayo 3,3,Calle del Primero de Mayo,40.0340423583984,-3.59273838996887,C1,http://www.crtm.es,0,,Europe/Madrid,2
par_8_19407,19407,INFANTAS-CAP.ANGOSTO GÓMEZ CASTRILLÓN,Calle de las Infantas 26,26,Calle de las Infantas,40.0348091125488,-3.60132479667664,C1,http://www.crtm.es,0,,Europe/Madrid,0
par_8_20627,20627,ALVAREZ DE QUINDOS-CUARTELES,Calle de Álvarez de Quindos 40,40,Calle de Álvarez de Quindos,40.0328063964844,-3.58992648124695,C1,http://www.crtm.es,0,,Europe/Madrid,0
par_8_20630,20630,ÁLVAREZ DE QUINDOS-CÁNDIDO LÓPEZ Y MALTA,Calle de Álvarez de Quindos 2,2,Calle de Álvarez de Quindos,40.0346527099609,-3.58845376968384,C1,http://www.crtm.es,0,,Europe/Madrid,0
par_8_20631,20631,CARAMILLAR-NORIA,Calle del Caramillar 10,10,Calle del Caramillar,40.0358085632324,-3.57899308204651,C1,http://www.crtm.es,0,,Europe/Madrid,0
par_8_20632,20632,ESTUDIOS CINEMATOGRÁFICOS-MEDIODÍA,Calle de los Estudios Cinematográficos 1,1,Calle de los Estudios Cinematográficos,40.037899017334,-3.57871770858765,C1,http://www.crtm.es,0,,Europe/Madrid,0
par_8_20633,20633,CECILIO LÁZARO-VÍCTIMAS DEL TERRORISMO,Calle de Cecilio Lázaro 1,1,Calle de Cecilio Lázaro,40.0358238220215,-3.58082175254822,C1,http://www.crtm.es,0,,Europe/Madrid,0
par_8_21327,21327,VALERAS-SAN ANTONIO,Calle de Valeras 1,1,Calle de Valeras,40.0337181091309,-3.60868763923645,C1,http://www.crtm.es,0,,Europe/Madrid,0
par_8_21328,21328,VALERAS-SAN ANTONIO,Calle de San Antonio 22,22,Calle de San Antonio,40.0337829589844,-3.60854744911194,C1,http://www.crtm.es,0,,Europe/Madrid,0
par_8_09569,09569,ESCUADRA-POLÍGONOIND.PIRELLI,Calle de la Escuadra 5,5,Calle de la Escuadra,40.0313911437988,-3.61782050132751,C1,http://www.crtm.es,0,,Europe/Madrid,2
par_8_09570,09570,ESCUADRA-POLÍGONOIND.PIRELLI,Calle de la Escuadra 5,5,Calle de la Escuadra,40.0312004089355,-3.61763143539429,C1,http://www.crtm.es,0,,Europe/Madrid,2
par_8_09578,09578,CUESTA PERDICES-SANTIAGO RUSIÑOL,Calle de Nuestra Señora de Montserrat 2 B,2B,Calle de Nuestra Señora de Montserrat,40.0295715332031,-3.61383104324341,C1,http://www.crtm.es,0,,Europe/Madrid,2
par_8_09595,09595,PLAZA DOCTOR GONZÁLEZBUENO-RESIDENCIA,Plaza del Doctor González Bueno 16,16,Plaza del Doctor González Bueno,40.0369567871094,-3.59235334396362,C1,http://www.crtm.es,0,,Europe/Madrid,2
par_8_09603,09603,AVENIDA LOYOLA-PLAZA MATADERO,Avenida de Loyola 3,3,Avenida de Loyola,40.0282897949219,-3.61279988288879,C1,http://www.crtm.es,0,,Europe/Madrid,2
par_8_09604,09604,AVENIDA LOYOLA-PLAZA MATADERO,Avenida de Loyola 5,5,Avenida de Loyola,40.0281829833984,-3.61297464370728,C1,http://www.crtm.es,0,,Europe/Madrid,2
par_8_09605,09605,AVENIDA LOYOLA-PLAZA PALOMA,Avenida de Loyola 2,2,Avenida de Loyola,40.0281524658203,-3.614990234375,C1,http://www.crtm.es,0,,Europe/Madrid,2
par_8_09606,09606,AVENIDA LOYOLA-PLAZA PALOMA,Avenida de Loyola 15,15,Avenida de Loyola,40.0280342102051,-3.61524701118469,C1,http://www.crtm.es,0,,Europe/Madrid,2
par_8_09607,09607,AVENIDA LOYOLA-VICTORIA KAMHI,Avenida de Loyola 25,25,Avenida de Loyola,40.0279731750488,-3.61784839630127,C1,http://www.crtm.es,0,,Europe/Madrid,2
par_8_09608,09608,AVENIDA LOYOLA-FRESNO,Avenida de Loyola 25,25,Avenida de Loyola,40.027904510498,-3.61743760108948,C1,http://www.crtm.es,0,,Europe/Madrid,2
par_8_09612,09612,PASEO DELEITE-PARQUE DE BOMBEROS,Calle Abubilla 17,17,Calle Abubilla,40.0257797241211,-3.61242580413818,C1,http://www.crtm.es,0,,Europe/Madrid,2
par_8_09613,09613,PASEO DELEITE-CUESTA PERDICES,Paseo de Deleite 5,5,Paseo de Deleite,40.0255508422852,-3.6126229763031,C1,http://www.crtm.es,0,,Europe/Madrid,2
par_8_09620,09620,VALERAS-VERDERÓN,Calle de Valeras 15,15,Calle de Valeras,40.0312843322754,-3.60893559455872,C1,http://www.crtm.es,0,,Europe/Madrid,2
par_8_09621,09621,VALERAS-SAN PASCUAL,Calle de Valeras 11,11,Calle de Valeras,40.031681060791,-3.60876321792603,C1,http://www.crtm.es,0,,Europe/Madrid,2
par_8_09639,09639,CUESTA PERDICES-SANTIAGO RUSIÑOL,Calle de la Cuesta las Perdices 7,7,Calle de la Cuesta las Perdices,40.0297966003418,-3.61390328407288,C1,http://www.crtm.es,0,,Europe/Madrid,2
par_8_09641,09641,ESCUADRA-POLÍGONOIND.PIRELLI,Calle de la Escuadra 17,17,Calle de la Escuadra,40.0328254699707,-3.61741161346436,C1,http://www.crtm.es,0,,Europe/Madrid,2
par_8_09642,09642,ESCUADRA-POLÍGONOIND.PIRELLI,Calle de la Escuadra 17,17,Calle de la Escuadra,40.0327529907227,-3.61732888221741,C1,http://www.crtm.es,0,,Europe/Madrid,2
par_8_12307,12307,PASEO DELEITE-VALERAS,Paseo de Deleite 28,28,Paseo de Deleite,40.0262031555176,-3.61019134521484,C1,http://www.crtm.es,0,,Europe/Madrid,2
par_8_12308,12308,PASEO DELEITE-VALERAS,Paseo de Deleite 28,28,Paseo de Deleite,40.026008605957,-3.60996675491333,C1,http://www.crtm.es,0,,Europe/Madrid,2
par_8_12473,12473,PASEO DELEITE-FRESNO,Paseo de Deleite 42,42,Paseo de Deleite,40.0247611999512,-3.61753797531128,C1,http://www.crtm.es,0,,Europe/Madrid,2
par_8_12474,12474,PASEO DELEITE-FRESNO,Paseo de Deleite 9,9,Paseo de Deleite,40.0245895385742,-3.61711478233337,C1,http://www.crtm.es,0,,Europe/Madrid,2
par_8_16255,16255,VALERAS-BAILÉN,Calle de Valeras 39,39,Calle de Valeras,40.028751373291,-3.60899519920349,C1,http://www.crtm.es,0,,Europe/Madrid,2
par_8_16256,16256,VALERAS-AVENIDA LOYOLA,Calle de Valeras 39,39,Calle de Valeras,40.028678894043,-3.60920548439026,C1,http://www.crtm.es,0,,Europe/Madrid,2
par_8_16756,16756,FLORIDA-MAGNOLIAS,Calle de la Florida 26,26,Calle de la Florida,40.0297012329102,-3.60660099983215,C1,http://www.crtm.es,0,,Europe/Madrid,2
par_8_16761,16761,ABASTOS-FOSO,Calle de Abastos 148,148,Calle de Abastos,40.0316467285156,-3.59788632392883,C1,http://www.crtm.es,0,,Europe/Madrid,2
par_8_16764,16764,ABASTOS-ABDÓN BORDOY,Calle de Abastos 192,192,Calle de Abastos,40.0307388305664,-3.59398746490479,C1,http://www.crtm.es,0,,Europe/Madrid,2
par_8_16765,16765,JESÚS-SANTA ISABEL,Calle de Jesús 11,11,Calle de Jesús,40.0317115783691,-3.59081959724426,C1,http://www.crtm.es,0,,Europe/Madrid,2
par_8_16769,16769,CUARTELES-SAN FERNANDO,Calle de los Cuarteles 3,3,Calle de los Cuarteles,40.0321617126465,-3.59746909141541,C1,http://www.crtm.es,0,,Europe/Madrid,2
par_8_17907,17907,SANTIAGO RUSIÑOL-OROPÉNDOLA,Calle de Santiago Rusiñol 5,5,Calle de Santiago Rusiñol,40.0315246582031,-3.61110591888428,C1,http://www.crtm.es,0,,Europe/Madrid,0
par_8_18677,18677,JUAN DE HERRERA-FAISANES,Calle Juan de Herrera 16,16,Calle Juan de Herrera,40.0259742736816,-3.61952972412109,C1,http://www.crtm.es,0,,Europe/Madrid,0
par_8_18678,18678,AVENIDA LOYOLA-JUAN DE HERRERA,Avenida de Loyola 31,31,Avenida de Loyola,40.0277290344238,-3.62007284164429,C1,http://www.crtm.es,0,,Europe/Madrid,0
par_8_21325,21325,PASEO DELEITE-ISIDRO GONZÁLEZ VELÁZQUEZ,Paseo del Deleite SN,,Paseo del Deleite,40.0244979858398,-3.61975073814392,C1,http://www.crtm.es,0,,Europe/Madrid,0
par_8_09579,09579,SANTIAGO RUSIÑOL-COLEGIO,Calle de Santiago Rusiñol 10,10,Calle de Santiago Rusiñol,40.0308876037598,-3.61216688156128,C1,http://www.crtm.es,0,,Europe/Madrid,2
par_8_09614,09614,FOSO-NUESTRA SEÑORAAZUCENA,Calle del Foso 83,83,Calle del Foso,40.0290412902832,-3.59862542152405,C1,http://www.crtm.es,0,,Europe/Madrid,2
par_8_09626,09626,AVENIDA PLAZA DE TOROS-CONCHA,Avenida de la Plaza de Toros 59,59,Avenida de la Plaza de Toros,40.0281600952148,-3.60136032104492,C1,http://www.crtm.es,0,,Europe/Madrid,2
par_8_09627,09627,AVENIDA PLAZA DE TOROS-CAMINO CRUCES,Avenida de la Plaza de Toros 18,18,Avenida de la Plaza de Toros,40.0280265808105,-3.60138249397278,C1,http://www.crtm.es,0,,Europe/Madrid,2
par_8_09628,09628,AVENIDA PLAZA DE TOROS-FOSO,Avenida de la Plaza de Toros 30,30,Avenida de la Plaza de Toros,40.0279273986816,-3.59981107711792,C1,http://www.crtm.es,0,,Europe/Madrid,2
par_8_09629,09629,AVENIDA PLAZA DE TOROS-FOSO,Avenida de la Plaza de Toros 61,61,Avenida de la Plaza de Toros,40.0279846191406,-3.59899115562439,C1,http://www.crtm.es,0,,Europe/Madrid,2
par_8_09630,09630,FOSO-SAN PASCUAL,camino de Noblejas 2,2,Cmno de Noblejas,40.0308990478516,-3.59829020500183,C1,http://www.crtm.es,0,,Europe/Madrid,2
par_8_09631,09631,VIRGEN DE LAS NIEVES-CAMINO NOBLEJAS,Calle de la Virgen de las Nieves 8,8,Calle de la Virgen de las Nieves,40.0304145812988,-3.59794592857361,C1,http://www.crtm.es,0,,Europe/Madrid,2
par_8_09632,09632,CAMINO NOBLEJAS-PARQUE POZO DE LA NIEVE,camino de Noblejas 49,49,Cmno de Noblejas,40.029052734375,-3.59614086151123,C1,http://www.crtm.es,0,,Europe/Madrid,2
par_8_09633,09633,CAMINO NOBLEJAS-PARQUE POZO DE LA NIEVE,camino de Noblejas 45,45,Cmno de Noblejas,40.0291709899902,-3.59613013267517,C1,http://www.crtm.es,0,,Europe/Madrid,2
par_8_09635,09635,CAMINO NOBLEJAS-PLAZA NUEVA,camino de Noblejas 59,59,Cmno de Noblejas,40.028434753418,-3.59525656700134,C1,http://www.crtm.es,0,,Europe/Madrid,2
par_8_16103,16103,ALHAMBRA DE GRANADA-INSTITUTO,Calle Alhambra de Granada 2,2,Calle Alhambra de Granada,40.033618927002,-3.58401465415955,C1,http://www.crtm.es,0,,Europe/Madrid,2
par_8_16105,16105,AVENIDA ARTES-MUDÉJAR DE ARAGÓN,Avenida de las Artes 95,95,Avenida de las Artes,40.0316123962402,-3.58545064926147,C1,http://www.crtm.es,0,,Europe/Madrid,2
par_8_16106,16106,AVENIDA ARTES-FLORES,Avenida de las Artes 39,39,Avenida de las Artes,40.0299339294434,-3.58944463729858,C1,http://www.crtm.es,0,,Europe/Madrid,2
par_8_16107,16107,AVENIDA ARTES-CRUZ,Avenida de las Artes 1,1,Avenida de las Artes,40.0278205871582,-3.59205174446106,C1,http://www.crtm.es,0,,Europe/Madrid,2
par_8_16753,16753,CARRETERA ANDALUCÍA-MERCADO DE ABASTOS,Carretera de Andalucía 30,30,Carretera de Andalucía,40.0323143005371,-3.60519409179688,C1,http://www.crtm.es,0,,Europe/Madrid,2
par_8_16755,16755,CARRETERA ANDALUCÍA-ROSA,Carretera de Andalucía 61,61,Carretera de Andalucía,40.0302391052246,-3.60535168647766,C1,http://www.crtm.es,0,,Europe/Madrid,2
par_8_16757,16757,PASEO DELEITE-GLORIETA LE PECQ,Paseo de Deleite 2,2,Paseo de Deleite,40.0267295837402,-3.60632848739624,C1,http://www.crtm.es,0,,Europe/Madrid,2
par_8_16758,16758,CARRETERA ANDALUCÍA-AVENIDA PLAZA DE TOROS,Carretera de Andalucía 1000,1000,Carretera de Andalucía,40.0275459289551,-3.60557389259338,C1,http://www.crtm.es,0,,Europe/Madrid,2
par_8_16759,16759,CAP.ANGOSTO G.CASTRILLÓN-PLAZA DE TOROS,Calle del Capitán Angosto Gómez Castrillón 157,157,Calle del Capitán Angosto Gómez Castrillón,40.0273971557617,-3.60304117202759,C1,http://www.crtm.es,0,,Europe/Madrid,2
par_8_16760,16760,ANDRÉS MARTÍNEZ-PLAZA DE TOROS,Calle del Capitán Angosto Gómez Castrillón 159,159,Calle del Capitán Angosto Gómez Castrillón,40.0271873474121,-3.60292220115662,C1,http://www.crtm.es,0,,Europe/Madrid,2
par_8_16766,16766,MÚSICA-GLORIETA. MÚSICA,Glorieta de la Música 2,2,Glorieta de la Música,40.0311241149902,-3.58748602867126,C1,http://www.crtm.es,0,,Europe/Madrid,2
par_8_20629,20629,ÁLVAREZ DE QUINDOS-MORERAS,Calle de Álvarez de Quindos 2,2,Calle de Álvarez de Quindos,40.0346527099609,-3.58831310272217,C1,http://www.crtm.es,0,,Europe/Madrid,0
par_8_21326,21326,JESÚS-DELICIAS,Calle de Jesús 39,39,Calle de Jesús,40.030216217041,-3.59222483634949,C1,http://www.crtm.es,0,,Europe/Madrid,0
par_8_09575,09575,ALMÍBAR-GOBERNADOR,Calle del Almíbar 83,83,Calle del Almíbar,40.0321884155273,-3.602778673172,C1,http://www.crtm.es,0,,Europe/Madrid,2
par_8_09638,09638,GLORIETA NUEVO ARANJUEZ-CUARTELES,Glorieta del Nuevo Aranjuez 1,1,Glorieta del Nuevo Aranjuez,40.0323295593262,-3.59323930740356,C1,http://www.crtm.es,0,,Europe/Madrid,2
par_8_10436,10436,ALMÍBAR-CALANDRIA,Calle del Almíbar 171,171,Calle del Almíbar,40.0291328430176,-3.60319709777832,C1,http://www.crtm.es,0,,Europe/Madrid,2
par_8_16404,16404,CUENCA-CASINO,Calle de Cuenca 1,1,Calle de Cuenca,40.0554008483887,-3.60552740097046,C1,http://www.crtm.es,0,,Europe/Madrid,2
par_8_16405,16405,GLORIETA VALLE DEL LOIRE-AVENIDA AMAZONAS CENTRAL,Avenida Amazonas Central 5,5,Avenida Amazonas Central,40.056453704834,-3.59703636169434,C1,http://www.crtm.es,0,,Europe/Madrid,2
par_8_16406,16406,SANTIAGO DE COMPOSTELA-PRAGA,Calle Santiago de Compostela 65,65,Calle Santiago de Compostela,40.0611190795898,-3.59933996200562,C1,http://www.crtm.es,0,,Europe/Madrid,2
par_8_16407,16407,AVENIDA PAZ DE HIROSIMA-SANTIAGO COMPOSTELA,Avenida Memorial de la Paz de Hirosima 54,54,Avenida Memorial de la Paz de Hirosima,40.0667724609375,-3.60355234146118,C1,http://www.crtm.es,0,,Europe/Madrid,2
par_8_16409,16409,CÓRDOBA-CATEDRAL DE BURGOS,Calle de Córdoba 21,21,Calle de Córdoba,40.0643692016602,-3.60536050796509,C1,http://www.crtm.es,0,,Europe/Madrid,2
par_8_17131,17131,PLAZA UNESCO-MÉRIDA,Plaza de la Unesco 1,1,Plaza de la Unesco,40.0563545227051,-3.60607504844666,C1,http://www.crtm.es,0,,Europe/Madrid,2
par_8_17132,17132,PATRIMONIO MUNDIAL-CASA MILÁ,Calle del Patrimonio Mundial 5,5,Calle del Patrimonio Mundial,40.0590515136719,-3.60708379745483,C1,http://www.crtm.es,0,,Europe/Madrid,2
par_8_17133,17133,CIUDAD DE TOLEDO-PATRIMONIO MUNDIAL,Calle de la Ciudad de Toledo 1,1,Calle de la Ciudad de Toledo,40.0620727539063,-3.60834193229675,C1,http://www.crtm.es,0,,Europe/Madrid,2
par_8_17433,17433,HOSPITAL DEL TAJO,Avenida Amazonas Central 1,1,Avenida Amazonas Central,40.0554237365723,-3.6100766658783,C1,http://www.crtm.es,0,,Europe/Madrid,2
par_8_17908,17908,SANTIAGO RUSIÑOL-OROPÉNDOLA,Calle de Santiago Rusiñol 5,5,Calle de Santiago Rusiñol,40.0316848754883,-3.61121296882629,C1,http://www.crtm.es,0,,Europe/Madrid,0
par_8_18085,18085,JACINTO GUERRERO-MAESTRO GURIDI,Calle de Jacinto Guerrero 8,8,Calle de Jacinto Guerrero,40.0333633422852,-3.61416983604431,C1,http://www.crtm.es,0,,Europe/Madrid,0
par_8_18086,18086,JACINTO GUERRERO-MAESTRO TORROBA,Calle de Jacinto Guerrero 8,8,Calle de Jacinto Guerrero,40.0325393676758,-3.6133770942688,C1,http://www.crtm.es,0,,Europe/Madrid,0
par_8_18355,18355,ÚBEDA-ISLAS GALÁPAGOS,Calle de Úbeda 23,23,Calle de Úbeda,40.0560035705566,-3.60057306289673,C1,http://www.crtm.es,0,,Europe/Madrid,0
par_8_18679,18679,SANTIAGO DE COMPOSTELA-OVIEDO,Calle Santiago de Compostela 30,30,Calle Santiago de Compostela,40.0642547607422,-3.60116147994995,C1,http://www.crtm.es,0,,Europe/Madrid,0
par_8_19315,19315,PRÍNCIPE-STUART,Calle del Príncipe 19,19,Calle del Príncipe,40.0360641479492,-3.60282444953918,C1,http://www.crtm.es,0,,Europe/Madrid,0
par_8_20626,20626,ALMANSA-FOSO,Calle de Almansa 2,2,Calle de Almansa,40.0337219238281,-3.59735369682312,C1,http://www.crtm.es,0,,Europe/Madrid,0
par_8_20882,20882,CARRETERA MADRID-DOCE CALLES,Carretera de Madrid 7900,7900,Carretera de Madrid,40.0475997924805,-3.60896348953247,C1,http://www.crtm.es,0,,Europe/Madrid,0
par_8_12207,12207,ALMÍBAR-INFANTAS,Calle del Almíbar 8,8,Calle del Almíbar,40.03466796875,-3.60264801979065,C1,http://www.crtm.es,0,,Europe/Madrid,2
par_8_15864,15864,ALMÍBAR-GOBERNADOR,Calle del Almíbar 72,72,Calle del Almíbar,40.032096862793,-3.60301232337952,C1,http://www.crtm.es,0,,Europe/Madrid,2
par_8_20444,20444,REY-INFANTAS,Calle del Rey 18,18,Calle del Rey,40.035026550293,-3.59993195533752,C1,http://www.crtm.es,0,,Europe/Madrid,0
par_8_20639,20639,GONZALO CHACÓN-CARRETERA CUESTA DEL REGAJAL,Calle Gonzalo Chacón 1,1,Calle Gonzalo Chacón,40.0206871032715,-3.6057243347168,C1,http://www.crtm.es,0,,Europe/Madrid,0
par_8_20640,20640,GONZALO CHACÓN-CARRETERA CUESTA DEL REGAJAL,Calle Gonzalo Chacón 4,4,Calle Gonzalo Chacón,40.0209465026855,-3.60584378242493,C1,http://www.crtm.es,0,,Europe/Madrid,0
par_8_20883,20883,REY-CALANDRIA,Calle del Rey 94,94,Calle del Rey,40.0290451049805,-3.6010046005249,C1,http://www.crtm.es,0,,Europe/Madrid,0
par_8_20886,20886,GOBERNADOR-CENTRO DE MAYORES,Calle del Gobernador 139,139,Calle del Gobernador,40.0322380065918,-3.59895825386047,C1,http://www.crtm.es,0,,Europe/Madrid,0
par_8_06347,06347,PLAZA JAIME MERIC-CRISTO,Plaza de Jaime Meric 4,4,Plaza de Jaime Meric,40.2422030603699,-3.70203512810164,B2,http://www.crtm.es,0,,Europe/Madrid,2
par_8_08041,08041,AVENIDA ESPAÑA-JOAN MIRÓ,Calle de Salvador Dalí 2,2,Calle de Salvador Dalí,40.2392445879275,-3.69962986198661,B2,http://www.crtm.es,0,,Europe/Madrid,2
par_8_08042,08042,SUR-POLIDEPORTIVO,Calle Sur 4,4,Calle Sur,40.2361939934013,-3.69904595656956,B2,http://www.crtm.es,0,,Europe/Madrid,2
par_8_08043,08043,AVENIDA ESPAÑA-TERREROS,Avenida de España 28,28,Avenida de España,40.2407880517177,-3.69765894540557,B2,http://www.crtm.es,0,,Europe/Madrid,2
par_8_08046,08046,ALFARO-IGLESIA,Calle de la Iglesia 1,1,Calle de la Iglesia,40.2433057221305,-3.69847248895254,B2,http://www.crtm.es,0,,Europe/Madrid,2
par_8_08048,08048,AVENIDA ISABEL LA CATÓLICA-POLIDEPORTIVO,Avenida de Isabel la Católica 1,1,Avenida de Isabel la Católica,40.2445431636185,-3.69943751620449,B2,http://www.crtm.es,0,,Europe/Madrid,2
par_8_08049,08049,AVENIDA ISABEL LA CATÓLICA-FERNANDO CATÓLICO,Avenida de Isabel la Católica 25,25,Avenida de Isabel la Católica,40.2456853426725,-3.69678041314335,B2,http://www.crtm.es,0,,Europe/Madrid,2
par_8_08052,08052,CAÑADA REAL DE TOLEDO-MÉJICO,Calle de la Cañada Real de Toledo 23,23,Calle de la Cañada Real de Toledo,40.2370497971366,-3.70054771848111,B2,http://www.crtm.es,0,,Europe/Madrid,2
par_8_08053,08053,VALDEMORO-FEDERICO GARCÍA LORCA,Calle Valdemoro 20,20,Calle Valdemoro,40.2370815961049,-3.69826745950504,B2,http://www.crtm.es,0,,Europe/Madrid,2
par_8_08191,08191,CARRETERA A4-POLÍGONOIND.SAN MARCOS,Carretera de Andalucía 14700,14700,Carretera de Andalucía,40.2976760864258,-3.69183707237244,B1,http://www.crtm.es,0,,Europe/Madrid,2
par_8_08192,08192,CARRETERA A4-POLÍGONOIND.SAN MARCOS,Carretera de Andalucía 14800,14800,Carretera de Andalucía,40.2964553833008,-3.69109511375427,B1,http://www.crtm.es,0,,Europe/Madrid,2
par_8_11136,11136,CAÑADA REAL DE TOLEDO-PLAZA LAS MERCEDES,Calle de la Cañada Real de Toledo 8,8,Calle de la Cañada Real de Toledo,40.2389787865146,-3.70037950542575,B2,http://www.crtm.es,0,,Europe/Madrid,2
par_8_11283,11283,CATALUÑA-ARAGÓN,Calle Cataluña 12 A,12A,Calle Cataluña,40.247427866092,-3.69465843632541,B2,http://www.crtm.es,0,,Europe/Madrid,2
par_8_1132,1132,AVENIDA CORDOBA-HOSPITAL 12 DE OCTUBRE,Avenida de Córdoba 49,49,Avenida de Córdoba,40.3766822814941,-3.69580149650574,A,http://www.crtm.es,0,,Europe/Madrid,0
par_8_1135,1135,AVENIDA ANDALUCIA-AVENIDA POBLADOS,Avenida de Andalucía 9,9,Avenida de Andalucía,40.3703842163086,-3.69451332092285,A,http://www.crtm.es,0,,Europe/Madrid,0
par_8_1136,1136,AVENIDA ANDALUCIA-AVENIDA LOS FUEROS,Avenida de Andalucía 9,9,Avenida de Andalucía,40.3701972961426,-3.69413447380066,A,http://www.crtm.es,0,,Europe/Madrid,0
par_8_1172,1172,AVENIDA ANDALUCIA-VERBENA DE LA PALOMA,Avenida de Andalucía 38,38,Avenida de Andalucía,40.3604354858398,-3.69348073005676,A,http://www.crtm.es,0,,Europe/Madrid,0
par_8_1173,1173,AVENIDA ANDALUCIA-CONCILIACION,Avenida de Andalucía 38,38,Avenida de Andalucía,40.360652923584,-3.69316506385803,A,http://www.crtm.es,0,,Europe/Madrid,0
par_8_12379,12379,AVENIDA EUROPA-REINO UNIDO,Avenida de Europa 1,1,Avenida de Europa,40.2487042697202,-3.69514179059617,B2,http://www.crtm.es,0,,Europe/Madrid,2
par_8_12380,12380,AVENIDA EUROPA-LUXEMBURGO,Avenida de Europa 6,6,Avenida de Europa,40.2491103648273,-3.69502836857151,B2,http://www.crtm.es,0,,Europe/Madrid,2
par_8_12381,12381,PLAZA DAVID MARTÍN-CENTRO DE SALUD,Plaza David Martín 2 D,2D,Plaza David Martín,40.2519111633301,-3.69483947753906,B2,http://www.crtm.es,0,,Europe/Madrid,2
par_8_12382,12382,PLAZA DAVID MARTÍN-CENTRO DE SALUD,Plaza David Martín 1,1,Plaza David Martín,40.2518005371094,-3.69541454315186,B2,http://www.crtm.es,0,,Europe/Madrid,2
par_8_12855,12855,SIERRA NEVADA-LAS MARISMAS,Calle Sierra Nevada 13,13,Calle Sierra Nevada,40.2671890258789,-3.69214963912964,B2,http://www.crtm.es,0,,Europe/Madrid,2
par_8_12856,12856,SIERRA NEVADA-LAS MARISMAS,Calle Sierra Nevada 13,13,Calle Sierra Nevada,40.2673530578613,-3.69188070297241,B2,http://www.crtm.es,0,,Europe/Madrid,2
par_8_12886,12886,SIERRA NEVADA-DOÑANA,Calle Sierra Nevada 5,5,Calle Sierra Nevada,40.2646217346191,-3.6917941570282,B2,http://www.crtm.es,0,,Europe/Madrid,2
par_8_12887,12887,SIERRA NEVADA-DOÑANA,Calle Sierra Nevada 5,5,Calle Sierra Nevada,40.2640533447266,-3.692058801651,B2,http://www.crtm.es,0,,Europe/Madrid,2
par_8_15532,15532,PASEO DE LAS ARTES-PABLO GARGALLO,Paseo de las Artes 13,13,Paseo de las Artes,40.2558250427246,-3.69442081451416,B2,http://www.crtm.es,0,,Europe/Madrid,2
par_8_15533,15533,PASEO DE LAS ARTES-COLEGIO,Paseo de las Artes 15,15,Paseo de las Artes,40.2550354003906,-3.69498896598816,B2,http://www.crtm.es,0,,Europe/Madrid,2
par_8_15776,15776,PLAZA ASUNCIÓN-ALFARO,Calle de Pedro Rubín de Celis 32,32,Calle de Pedro Rubín de Celis,40.2457306398697,-3.69524069761039,B2,http://www.crtm.es,0,,Europe/Madrid,2
par_8_16454,16454,CATALUÑA-ARAGÓN,Calle Cataluña 9,9,Calle Cataluña,40.247347352814,-3.69456355416427,B2,http://www.crtm.es,0,,Europe/Madrid,2
par_8_16729,16729,AVENIDA ANDALUCÍA-VILLAVERDE BAJO CRUCE,Calle de Santiago Amón 4,4,Calle de Santiago Amón,40.3500862121582,-3.69332599639893,A,http://www.crtm.es,0,,Europe/Madrid,2
par_8_16730,16730,AVENIDA ANDALUCÍA-VILLAVERDE BAJO CRUCE,Avenida de Andalucía 38,38,Avenida de Andalucía,40.3504486083984,-3.69283509254456,A,http://www.crtm.es,0,,Europe/Madrid,2
par_8_16736,16736,PASEO DE LA CHOPERA-LEGAZPI,Paseo de la Chopera 71,71,Paseo de la Chopera,40.3917694091797,-3.6960391998291,A,http://www.crtm.es,0,,Europe/Madrid,2
par_8_18462,18462,PASEO DE LAS ARTES-AVENIDA JUAN PABLO II,Paseo de las Artes 20,20,Paseo de las Artes,40.2593574523926,-3.693763256073,B2,http://www.crtm.es,0,,Europe/Madrid,0
par_8_18463,18463,PASEO DE LAS ARTES-FRANCISCO BARBIERI,Paseo de las Artes 20,20,Paseo de las Artes,40.2591552734375,-3.69313788414001,B2,http://www.crtm.es,0,,Europe/Madrid,0
par_8_3858,3858,PASEO DELICIAS-PLAZA DE LEGAZPI,Paseo de las Delicias 133,133,Paseo de las Delicias,40.3923721313477,-3.69483184814453,A,http://www.crtm.es,0,,Europe/Madrid,0
par_8_5380,5380,AVENIDA CORDOBA-HOSPITAL 12 DE OCTUBRE,Avenida de Córdoba 49,49,Avenida de Córdoba,40.376880645752,-3.69578003883362,A,http://www.crtm.es,0,,Europe/Madrid,0
par_8_5704,5704,AVENIDA CORDOBA-ANTONIO LOPEZ,Avenida de Córdoba 3 A,3A,Avenida de Córdoba,40.3873481750488,-3.69891715049744,A,http://www.crtm.es,0,,Europe/Madrid,0
par_8_5718,5718,AVENIDA CORDOBA-GLORIETA CADIZ,Avenida de Córdoba 2,2,Avenida de Córdoba,40.3872375488281,-3.6990339756012,A,http://www.crtm.es,0,,Europe/Madrid,0
par_8_07989,07989,AVENIDA ANDALUCÍA-POLÍGONOIND.ALBRESA,Calle Roma 1,1,Calle Roma,40.2108116149902,-3.68218660354614,B3,http://www.crtm.es,0,,Europe/Madrid,2
par_8_07990,07990,AVENIDA ANDALUCÍA-POLÍGONOIND.ALBRESA,Avenida de Andalucía 198,198,Avenida de Andalucía,40.2098731994629,-3.68110775947571,B3,http://www.crtm.es,0,,Europe/Madrid,2
par_8_07992,07992,AVENIDA ANDALUCÍA-RESIDENCIA,Avenida de Andalucía 25900,25900,Avenida de Andalucía,40.2046775817871,-3.67906999588013,B3,http://www.crtm.es,0,,Europe/Madrid,2
par_8_07993,07993,SAN VICENTE DE PAÚL-DOCTOR FLEMING,Calle San Vicente de Paúl 10,10,Calle San Vicente de Paúl,40.1932601928711,-3.67650079727173,B3,http://www.crtm.es,0,,Europe/Madrid,2
par_8_07994,07994,SAN VICENTE DE PAÚL-TENERÍAS,Calle San Vicente de Paúl 28,28,Calle San Vicente de Paúl,40.192554473877,-3.68034696578979,B3,http://www.crtm.es,0,,Europe/Madrid,2
par_8_07995,07995,NEGRITAS-RÍO GUADALQUIVIR,Calle Negritas 30,30,Calle Negritas,40.191593170166,-3.68300414085388,B3,http://www.crtm.es,0,,Europe/Madrid,2
par_8_08000,08000,AVENIDA ANDALUCÍA-PASEO DE LOS HOTELES,Avenida de Andalucía 27 D,27D,Avenida de Andalucía,40.191535949707,-3.67415738105774,B3,http://www.crtm.es,0,,Europe/Madrid,2
par_8_08195,08195,CARRETERA A4-ÁREA EMPRESARIAL ANDALUCÍA,Carretera de Andalucía (N-IV) 18400,18400,Carretera de Andalucía (N-IV),40.2668190002441,-3.69091081619263,B2,http://www.crtm.es,0,,Europe/Madrid,2
par_8_08196,08196,CARRETERA A4-POLÍGONO IND.LAS ARENAS,Calle de las Arenas 1,1,Calle de las Arenas,40.2671356201172,-3.6902437210083,B2,http://www.crtm.es,0,,Europe/Madrid,2
par_8_10761,10761,PARLA-VICENTE ALEIXANDRE,Calle Parla 26,26,Calle Parla,40.1929664611816,-3.68794059753418,B3,http://www.crtm.es,0,,Europe/Madrid,2
par_8_10763,10763,PASEO ESTACIÓN-ALBERIZA,Calle Valdesanchuela 1,1,Calle Valdesanchuela,40.1919898986816,-3.67158913612366,B3,http://www.crtm.es,0,,Europe/Madrid,2
par_8_10878,10878,CARRETERA A4-CENTRO DE ALMACENAJE Y DISTRIB.,Carretera de Andalucía (N-IV) 24200,24200,Carretera de Andalucía (N-IV),40.2196617126465,-3.68513107299805,B3,http://www.crtm.es,0,,Europe/Madrid,2
par_8_11836,11836,PASEO COMUNIDAD DE MADRID-CEMENTERIO,Calle Aguado 59,59,Calle Aguado,40.1878700256348,-3.68465852737427,B3,http://www.crtm.es,0,,Europe/Madrid,2
par_8_11838,11838,LIBERTAD-COMUNIDAD MADRID,Calle Libertad 52,52,Calle Libertad,40.190559387207,-3.68561363220215,B3,http://www.crtm.es,0,,Europe/Madrid,2
par_8_12890,12890,AGUADO-AVENIDA HISPANOAMÉRICA,Calle Aguado 93,93,Calle Aguado,40.1869812011719,-3.68864345550537,B3,http://www.crtm.es,0,,Europe/Madrid,2
par_8_15534,15534,JOSÉ MARÍA PEMÁN-EMILIA PARDO BAZÁN,Calle José María Pemán 2,2,Calle José María Pemán,40.1937370300293,-3.68899393081665,B3,http://www.crtm.es,0,,Europe/Madrid,2
par_8_15536,15536,LIBERTAD-CUBA,Calle Libertad 79,79,Calle Libertad,40.1903076171875,-3.68845391273499,B3,http://www.crtm.es,0,,Europe/Madrid,2
par_8_15928,15928,DALÍ-PISCINA MUNICIPAL,Calle Dalí 50,50,Calle Dalí,40.1951904296875,-3.68687033653259,B3,http://www.crtm.es,0,,Europe/Madrid,2
par_8_15929,15929,DALÍ-CRISTO DE LA SALUD,Calle Dalí 19,19,Calle Dalí,40.1962089538574,-3.68195796012878,B3,http://www.crtm.es,0,,Europe/Madrid,2
par_8_16162,16162,GLORIETA JOSÉ MªPEMÁN-ANTONIO VAN DE PERE,Calle José María Pemán 1,1,Calle José María Pemán,40.1953086853027,-3.68812870979309,B3,http://www.crtm.es,0,,Europe/Madrid,2
par_8_16171,16171,AVENIDA ANDALUCÍA-POLÍGONO IND.ALBRESA,Avenida de Andalucía 105,105,Avenida de Andalucía,40.2063102722168,-3.68041396141052,B3,http://www.crtm.es,0,,Europe/Madrid,2
par_8_16334,16334,AVENIDA ESPAÑA-LIBERTAD,Avenida de España 28,28,Avenida de España,40.1911277770996,-3.69116425514221,B3,http://www.crtm.es,0,,Europe/Madrid,2
par_8_16337,16337,AVENIDA ESPAÑA-JAMAICA,Calle Aguado 107,107,Calle Aguado,40.1850204467773,-3.69288778305054,B3,http://www.crtm.es,0,,Europe/Madrid,2
par_8_17210,17210,AGUADO-RONDA DE LAS COMUNIDADES,Calle Aguado 91,91,Calle Aguado,40.1876525878906,-3.68761658668518,B3,http://www.crtm.es,0,,Europe/Madrid,2
par_8_17265,17265,AGUADO-PARAGUAY,Calle Aguado 97,97,Calle Aguado,40.1862869262695,-3.69012832641602,B3,http://www.crtm.es,0,,Europe/Madrid,2
par_8_17266,17266,AGUADO-GUATEMALA,Calle Aguado 107,107,Calle Aguado,40.1855545043945,-3.6921648979187,B3,http://www.crtm.es,0,,Europe/Madrid,2
par_8_17267,17267,AVENIDA ESPAÑA-BIBLIOTECA,Avenida de España 99,99,Avenida de España,40.1876602172852,-3.69256234169006,B3,http://www.crtm.es,0,,Europe/Madrid,2
par_8_17961,17961,DALÍ-RAFAEL,Calle Dalí 22,22,Calle Dalí,40.1957931518555,-3.68386888504028,B3,http://www.crtm.es,0,,Europe/Madrid,0
par_8_19279,19279,PÍO BAROJA-MIGUEL HERNÁNDEZ,Calle de Pío Baroja 7,7,Calle de Pío Baroja,40.1934814453125,-3.68502044677734,B3,http://www.crtm.es,0,,Europe/Madrid,0
par_8_06165,06165,ESTACIÓN SUR DE AUTOBUSES,Calle de Méndez Álvaro 85,85,Calle de Méndez Álvaro,40.3943367004395,-3.67820262908936,A,http://www.crtm.es,0,est_90_13,,2
par_8_08059,08059,CARRETERA A4-CARRETERA M841,Carretera de Andalucía (N-IV) 21000,21000,Carretera de Andalucía (N-IV),40.2459259033203,-3.68958139419556,B2,http://www.crtm.es,0,,Europe/Madrid,2
par_8_09324,09324,AVENIDA ANDALUCÍA-POLÍGONO IND.VALMOR,Avenida de los Yeseros 1,1,Avenida de los Yeseros,40.172607421875,-3.66603088378906,B3,http://www.crtm.es,0,,Europe/Madrid,2
par_8_10999,10999,INFANTAS-ESTACION DE AUTOBUSES,Calle de las Infantas 18,18,Calle de las Infantas,40.0348510742188,-3.60220432281494,C1,http://www.crtm.es,0,,Europe/Madrid,2
par_8_15382,15382,NARCISO MONTURIOL-AVENIDA B.DAZA DE VALDÉS,Calle Narciso Monturiol 10,10,Calle Narciso Monturiol,40.173095703125,-3.66724538803101,B3,http://www.crtm.es,0,,Europe/Madrid,2
par_8_17115,17115,MORERAS-COLEGIO,Calle de las Moreras 46,46,Calle de las Moreras,40.0351333618164,-3.58924341201782,C1,http://www.crtm.es,0,,Europe/Madrid,2
par_8_18828,18828,CARRETERA A4-SESEÑA NUEVO,Acces seseña sn,,Acces seseña,40.1087951660156,-3.64860534667969,C1,http://www.crtm.es,0,,Europe/Madrid,0
par_8_18829,18829,CARRETERA A4-SESEÑA NUEVO,Carretera A-4 SN,4,Carretera A-4,40.1074829101563,-3.64617586135864,C1,http://www.crtm.es,0,,Europe/Madrid,0
par_8_20174,20174,AVENIDA ANDALUCÍA-FEDERICO MARÍN,Avenida de Andalucía 23,23,Avenida de Andalucía,40.1910133361816,-3.67396426200867,B3,http://www.crtm.es,0,,Europe/Madrid,0
par_8_2916,2916,PASEO MOLINO-PLAZA LEGAZPI,Paseo del Molino 1,1,Paseo del Molino,40.3908805847168,-3.69430994987488,A,http://www.crtm.es,0,,Europe/Madrid,0
par_8_3201,3201,PASEO MOLINO-PLAZA LEGAZPI,Paseo del Molino 2,2,Paseo del Molino,40.3906555175781,-3.69443702697754,A,http://www.crtm.es,0,,Europe/Madrid,0
est_90_13,13,MÉNDEZ ÁLVARO ESTACIÓN SUR,Calle del Ombu 16,16,Calle del Ombu,40.39538,-3.67819,A,http://www.crtm.es,1,,Europe/Madrid,0
par_8_11986,11986,AVENIDA MAR MEDITERRÁNEO-CENTRO COMERCIAL,Avenida del Mar Mediterráneo 40,40,Avenida del Mar Mediterráneo,40.1851654052734,-3.67907500267029,B3,http://www.crtm.es,0,,Europe/Madrid,2
par_8_11987,11987,AVENIDA MAR MEDITERRÁNEO-CENTRO COMERCIAL,Avenida del Mar Mediterráneo 3,3,Avenida del Mar Mediterráneo,40.1849479675293,-3.67911982536316,B3,http://www.crtm.es,0,,Europe/Madrid,2
par_8_11988,11988,AVENIDA MAR MEDITERRÁNEO-CIBELES,Avenida del Mar Mediterráneo 72,72,Avenida del Mar Mediterráneo,40.1840515136719,-3.68153071403503,B3,http://www.crtm.es,0,,Europe/Madrid,2
par_8_11989,11989,AVENIDA MAR MEDITERRÁNEO-OLIMPO,Avenida del Mar Mediterráneo 72,72,Avenida del Mar Mediterráneo,40.1837539672852,-3.68151593208313,B3,http://www.crtm.es,0,,Europe/Madrid,2
par_8_11990,11990,AVENIDA MAR MEDITERRÁNEO-VENUS,Avenida del Mar Mediterráneo 106,106,Avenida del Mar Mediterráneo,40.1819381713867,-3.6835298538208,B3,http://www.crtm.es,0,,Europe/Madrid,2
par_8_11991,11991,AVENIDA MAR MEDITERRÁNEO-AFRODITA,Avenida del Mar Mediterráneo 106,106,Avenida del Mar Mediterráneo,40.1818313598633,-3.68329405784607,B3,http://www.crtm.es,0,,Europe/Madrid,2
par_8_11992,11992,AVENIDA MAR MEDITERRÁNEO-MINERVA,Avenida del Mar Mediterráneo 178,178,Avenida del Mar Mediterráneo,40.1790161132813,-3.6860728263855,B3,http://www.crtm.es,0,,Europe/Madrid,2
par_8_11993,11993,AVENIDA MAR ADRIÁTICO-COLEGIO,Avenida Mar Adriático 7,7,Avenida Mar Adriático,40.1770057678223,-3.6842086315155,B3,http://www.crtm.es,0,,Europe/Madrid,2
par_8_11994,11994,APOLO-JÚPITER,Calle Apolo 25,25,Calle Apolo,40.179370880127,-3.68089652061462,B3,http://www.crtm.es,0,,Europe/Madrid,2
par_8_15375,15375,GLORIETA POZO SAN PEDRO-PASEO JUNCAREJO,Glorieta Pozo San Pedro 1,1,Glorieta Pozo San Pedro,40.1762161254883,-3.68108820915222,B3,http://www.crtm.es,0,,Europe/Madrid,2
par_8_15844,15844,GLORIETA SIRENAS-AVENIDA MAR MEDITERRÁNEO,Glorieta de las Sirenas 1,1,Glorieta de las Sirenas,40.1775398254395,-3.68738532066345,B3,http://www.crtm.es,0,,Europe/Madrid,2
par_8_15931,15931,SALINAS-PASEO DEL JUNCAREJO,Calle de Chequia 1,1,Calle de Chequia,40.1851501464844,-3.67666673660278,B3,http://www.crtm.es,0,,Europe/Madrid,2
par_8_15932,15932,CAMINO SALINAS-PARQUE ENRIQUE TIERNO GALVÁN,Calle de Chequia 1,1,Calle de Chequia,40.1852951049805,-3.67652726173401,B3,http://www.crtm.es,0,,Europe/Madrid,2
par_8_15933,15933,CHEQUIA-PORTUGAL,Calle de Chequia 21,21,Calle de Chequia,40.1842231750488,-3.6735565662384,B3,http://www.crtm.es,0,,Europe/Madrid,2
par_8_15934,15934,CHEQUIA-PORTUGAL,Calle de Chequia 13,13,Calle de Chequia,40.1842384338379,-3.67409706115723,B3,http://www.crtm.es,0,,Europe/Madrid,2
par_8_15935,15935,AVENIDA EUROPA-ESLOVAQUIA,Avenida de Europa 66,66,Avenida de Europa,40.1821708679199,-3.67169213294983,B3,http://www.crtm.es,0,,Europe/Madrid,2
par_8_15936,15936,AVENIDA EUROPA-ESLOVAQUIA,Avenida de Europa 73,73,Avenida de Europa,40.182315826416,-3.67156434059143,B3,http://www.crtm.es,0,,Europe/Madrid,2
par_8_15937,15937,AVENIDA EUROPA-BENELUX,Avenida de Europa 120,120,Avenida de Europa,40.1787452697754,-3.67178750038147,B3,http://www.crtm.es,0,,Europe/Madrid,2
par_8_15938,15938,AVENIDA EUROPA-BENELUX,Avenida de Europa 129,129,Avenida de Europa,40.1785850524902,-3.67151570320129,B3,http://www.crtm.es,0,,Europe/Madrid,2
par_8_17207,17207,GLORIETA SIRENAS-AVENIDA MAR ADRIÁTICO,Glorieta de las Sirenas 1,1,Glorieta de las Sirenas,40.1772727966309,-3.6863842010498,B3,http://www.crtm.es,0,,Europe/Madrid,2
par_8_21341,21341,AVENIDA MAR MEDITERRÁNEO-GLORIETA AMAZONAS,Avenida del Mar Mediterráneo 169,169,Avenida del Mar Mediterráneo,40.1759262084961,-3.68745112419128,B3,http://www.crtm.es,0,,Europe/Madrid,0
par_8_21342,21342,AVENIDA MAR MEDITERRÁNEO-GLORIETA AMAZONAS,Avenida del Mar Mediterráneo 234,234,Avenida del Mar Mediterráneo,40.1759223937988,-3.68765091896057,B3,http://www.crtm.es,0,,Europe/Madrid,0
par_8_08020,08020,ESTRELLAS-CASTILLA LA NUEVA,Calle Estrellas 41 B,41B,Calle Estrellas,40.1598205566406,-3.62319993972778,B3,http://www.crtm.es,0,,Europe/Madrid,2
par_8_08021,08021,ESTRELLAS-AVENIDA VENERABLE MADRE MªANTONIA,Avenida de la Venerable Madre María Antonia de la Misericordia 17,17,Avenida de la Venerable Madre María Antonia de la Misericordia,40.1598854064941,-3.62287163734436,B3,http://www.crtm.es,0,,Europe/Madrid,2
par_8_08022,08022,AVENIDA BELÉN-MANUEL DE FALLA,Avenida Belén 39,39,Avenida Belén,40.1554489135742,-3.62848949432373,B3,http://www.crtm.es,0,,Europe/Madrid,2
par_8_08023,08023,AVENIDA BELÉN-VENTURA RODRIGUEZ,Avenida Belén 14,14,Avenida Belén,40.1557426452637,-3.62713003158569,B3,http://www.crtm.es,0,,Europe/Madrid,2
par_8_08024,08024,AVENIDA CONSUELO-AVENIDA BELÉN,Calle de los Jardines 35,35,Calle de los Jardines,40.1559295654297,-3.62280035018921,B3,http://www.crtm.es,0,,Europe/Madrid,2
par_8_08025,08025,AVENIDA CONSUELO-LUNA,Avenida Consuelo 28 A,28A,Avenida Consuelo,40.1563987731934,-3.62256979942322,B3,http://www.crtm.es,0,,Europe/Madrid,2
par_8_09538,09538,AVENIDA MADRID-ESTRELLAS,Plaza Gloria Fuertes 1,1,Plaza Gloria Fuertes,40.1637191772461,-3.62525534629822,B3,http://www.crtm.es,0,,Europe/Madrid,2
par_8_09539,09539,ESTRELLAS-AVENIDA MADRID,Calle Estrellas 28,28,Calle Estrellas,40.1629295349121,-3.62461400032043,B3,http://www.crtm.es,0,,Europe/Madrid,2
par_8_12496,12496,AVENIDA MADRID-CARRETERA M404,Avenida de Madrid 32,32,Avenida de Madrid,40.1647033691406,-3.6280357837677,B3,http://www.crtm.es,0,,Europe/Madrid,2
par_8_12497,12497,AVENIDA MADRID-COLONIA SAN BENITO,Avenida de Madrid 32,32,Avenida de Madrid,40.1648025512695,-3.62809538841248,B3,http://www.crtm.es,0,,Europe/Madrid,2
par_8_15538,15538,AVENIDA CONSUELO-DOCTOR RIVAS,Avenida Consuelo 1,1,Avenida Consuelo,40.1586990356445,-3.62078237533569,B3,http://www.crtm.es,0,,Europe/Madrid,2
par_8_15825,15825,AVENIDA CONSUELO-CERVANTES,Avenida Consuelo 10 A,10A,Avenida Consuelo,40.1577491760254,-3.62131404876709,B3,http://www.crtm.es,0,,Europe/Madrid,2
par_8_16335,16335,AVENIDA ESPAÑA-LIBERTAD,Avenida de España 28,28,Avenida de España,40.1910133361816,-3.6909282207489,B3,http://www.crtm.es,0,,Europe/Madrid,2
par_8_17884,17884,URBANIZACIÓN PARQUE OLIMPIA-AVENIDA BELÉN,Calle de Enrique Granados 12 B,12B,Calle de Enrique Granados,40.1556358337402,-3.63209581375122,B3,http://www.crtm.es,0,,Europe/Madrid,0
par_8_21083,21083,AVENIDA REYES CATÓLICOS-PEDRO DE VALDIVIA,Avenida de los Reyes Católicos 21,21,Avenida de los Reyes Católicos,40.1968994140625,-3.69611048698425,B3,http://www.crtm.es,0,,Europe/Madrid,0
par_8_08057,08057,PINTO-GUARDIA CIVIL,Carretera M-841 (Ramal de enlace A4-Pinto con M-506) 10,841,Carretera M-841 (Ramal de enlace A4-Pinto con M-506),40.2459678649902,-3.69280457496643,B2,http://www.crtm.es,0,,Europe/Madrid,2
par_8_12385,12385,COTO DE DOÑANA-SERRANÍA DE RONDA,Calle del Coto de Doñana 17,17,Calle del Coto de Doñana,40.2649307250977,-3.69917106628418,B2,http://www.crtm.es,0,,Europe/Madrid,2
par_8_12386,12386,COTO DE DOÑANA-SERRANÍA DE RONDA,Calle del Coto de Doñana 18,18,Calle del Coto de Doñana,40.265209197998,-3.69915056228638,B2,http://www.crtm.es,0,,Europe/Madrid,2
par_8_12387,12387,NASSICA-CENTRO COMERCIAL,Calle Río Guadalquivir 13,13,Calle Río Guadalquivir,40.2711524963379,-3.69987034797668,B2,http://www.crtm.es,0,,Europe/Madrid,2
par_8_12388,12388,NASSICA-CENTRO COMERCIAL,Calle Río Guadalquivir 13,13,Calle Río Guadalquivir,40.2709350585938,-3.69965648651123,B2,http://www.crtm.es,0,,Europe/Madrid,2
par_8_12391,12391,RÍO BEMBEZAR-RÍO CHANZA,Calle Río Bembezar SN,,Calle Río Bembezar,40.2770690917969,-3.69695544242859,B2,http://www.crtm.es,0,,Europe/Madrid,2
par_8_12453,12453,NASSICA-CENTRO OUTLET,Calle Río Guadalhorce 2,2,Calle Río Guadalhorce,40.2714347839355,-3.69446301460266,B2,http://www.crtm.es,0,,Europe/Madrid,2
par_8_12695,12695,RÍO ODIEL-BEMBÉZAR,Calle Río Odiel SN,,Calle Río Odiel,40.2759094238281,-3.70106029510498,B2,http://www.crtm.es,0,,Europe/Madrid,2
par_8_12981,12981,RÍO TINTO-RÍO ODIEL,Calle Río Tinto SN,,Calle Río Tinto,40.2743110656738,-3.7005615234375,B2,http://www.crtm.es,0,,Europe/Madrid,2
par_8_15440,15440,MARÍA BLANCHARD-PINTOR ANTONIO LOPEZ,Calle María Blanchard 4,4,Calle María Blanchard,40.2519226074219,-3.69869637489319,B2,http://www.crtm.es,0,,Europe/Madrid,2
par_8_16457,16457,AVENIDA PINTOR ANTONIO LÓPEZ-LUIS FEITO,Avenida Pintor Antonio López 9,9,Avenida Pintor Antonio López,40.2527351379395,-3.69977474212646,B2,http://www.crtm.es,0,,Europe/Madrid,2
par_8_16732,16732,AVENIDA ANDALUCÍA-VILLAVERDE BAJO CRUCE,Calle de Santa Petronila 9,9,Calle de Santa Petronila,40.3505668640137,-3.69261264801025,A,http://www.crtm.es,0,,Europe/Madrid,2
par_8_17735,17735,AVENIDA PINTOR ANTONIO LÓPEZ-LUIS FEITO,Avenida Pintor Antonio López 14,14,Avenida Pintor Antonio López,40.253002166748,-3.69941282272339,B2,http://www.crtm.es,0,,Europe/Madrid,2
par_8_17738,17738,MARÍA BLANCHARD-CEMENTERIO,Calle María Blanchard 2,2,Calle María Blanchard,40.2520866394043,-3.69828653335571,B2,http://www.crtm.es,0,,Europe/Madrid,2
par_8_18461,18461,NASSICA-CENTRO OUTLET,Calle Río Guadalhorce 2,2,Calle Río Guadalhorce,40.2708740234375,-3.69508051872253,B2,http://www.crtm.es,0,,Europe/Madrid,0
par_8_18464,18464,MANUEL DE FALLA-ESCUELA DE MÚSICA,Avenida Pintor Antonio López 21,21,Avenida Pintor Antonio López,40.2564659118652,-3.69980144500732,B2,http://www.crtm.es,0,,Europe/Madrid,0
par_8_18465,18465,MANUEL DE FALLA-ESCUELA DE MÚSICA,Calle Manuel de Falla 1,1,Calle Manuel de Falla,40.2565574645996,-3.69943785667419,B2,http://www.crtm.es,0,,Europe/Madrid,0
par_8_18467,18467,MANUEL DE FALLA-AVENIDA JUAN PABLO II,Calle Manuel de Falla 11,11,Calle Manuel de Falla,40.2584571838379,-3.69996285438538,B2,http://www.crtm.es,0,,Europe/Madrid,0
par_8_18579,18579,MANUEL DE FALLA-AVENIDA JUAN PABLO II,Calle Manuel de Falla 11,11,Calle Manuel de Falla,40.2585945129395,-3.69963502883911,B2,http://www.crtm.es,0,,Europe/Madrid,0
par_8_06005,06005,AVENIDA JUAN DE LA CIERVA-PLAZA LAS HERAS,Avenida de Juan de la Cierva 25,25,Avenida de Juan de la Cierva,40.3074913024902,-3.72512269020081,B1,http://www.crtm.es,0,,Europe/Madrid,2
par_8_07414,07414,AVENIDA JUAN DE LA CIERVA-PLAZA DE ESPAÑA,Avenida de Juan de la Cierva 20,20,Avenida de Juan de la Cierva,40.308305749847,-3.72499581740254,B1,http://www.crtm.es,0,,Europe/Madrid,2
par_8_08241,08241,LEGANÉS-BATRES,Calle Leganés 69,69,Calle Leganés,40.3104468140654,-3.73689292943845,B1,http://www.crtm.es,0,,Europe/Madrid,2
par_8_08242,08242,PLAZA ALCALDE JUAN VERGARA-LEGANÉS,Calle Leganés SN,,Calle Leganés,40.3108712612135,-3.73673278575825,B1,http://www.crtm.es,0,,Europe/Madrid,2
par_8_08249,08249,PASEO JOHN LENNON-CARPINTEROS,Paseo de John Lennon 3,3,Paseo de John Lennon,40.3043785095215,-3.70120167732239,B1,http://www.crtm.es,0,,Europe/Madrid,2
par_8_08250,08250,AVENIDA JUAN DE LA CIERVA-HOSPITAL DE SAN JOSE,Avenida de Juan de la Cierva 1,1,Avenida de Juan de la Cierva,40.3050079345703,-3.72494316101074,B1,http://www.crtm.es,0,,Europe/Madrid,2
par_8_08251,08251,PASEO JOHN LENNON-ESTACIÓNGETAFE INDUSTRIAL,Paseo de John Lennon 15300,15300,Paseo de John Lennon,40.3048560104412,-3.70888474983719,B1,http://www.crtm.es,0,,Europe/Madrid,2
par_8_08278,08278,PASEO JOHN LENNON-DIESEL,Paseo de John Lennon 16100,16100,Paseo de John Lennon,40.3040976992153,-3.70026322429489,B1,http://www.crtm.es,0,,Europe/Madrid,2
par_8_08293,08293,MADRID-UNIVERSIDAD,Calle Madrid 129,129,Calle Madrid,40.3159131138745,-3.72727802940898,B1,http://www.crtm.es,0,,Europe/Madrid,2
par_8_08294,08294,MADRID-UNIVERSIDAD,Calle Madrid 133,133,Calle Madrid,40.3168607052175,-3.72701750038502,B1,http://www.crtm.es,0,,Europe/Madrid,2
par_8_08296,08296,MADRID-PLAZA VICTORIA KENT,Calle Madrid 141,141,Calle Madrid,40.3188890168364,-3.72681563188286,B1,http://www.crtm.es,0,,Europe/Madrid,2
par_8_08297,08297,MADRID-PLAZA VICTORIA KENT,Calle Madrid 141,141,Calle Madrid,40.3191782491422,-3.72666572596672,B1,http://www.crtm.es,0,,Europe/Madrid,2
par_8_08308,08308,PASEO JOHN LENNON-BASE AÉREA,Paseo de John Lennon 14200,14200,Paseo de John Lennon,40.3046493530273,-3.72457456588745,B1,http://www.crtm.es,0,,Europe/Madrid,2
par_8_08315,08315,AVENIDA JUAN DE LA CIERVA-PLAZA SAN SEBASTIÁN,Avenida de Juan de la Cierva 54,54,Avenida de Juan de la Cierva,40.3122367858887,-3.72700929641724,B1,http://www.crtm.es,0,,Europe/Madrid,2
par_8_08316,08316,AVENIDA JUAN DE LA CIERVA-PLAZA SAN SEBASTIÁN,Avenida de Juan de la Cierva 54,54,Avenida de Juan de la Cierva,40.3123742612578,-3.72700468938661,B1,http://www.crtm.es,0,,Europe/Madrid,2
par_8_08345,08345,PASEO JOHN LENNON-ESTACIÓNGETAFE INDUSTRIAL,Paseo de John Lennon 15300,15300,Paseo de John Lennon,40.3050970049705,-3.70925205809507,B1,http://www.crtm.es,0,,Europe/Madrid,2
par_8_09544,09544,GLORIETA A42-HOSPITAL DE GETAFE,Carretera de Madrid-Toledo 12500,12500,Carretera de Madrid-Toledo,40.3122768023265,-3.73953722261859,B1,http://www.crtm.es,0,,Europe/Madrid,2
par_8_09547,09547,GLORIETA A42-HOSPITAL DE GETAFE,Carretera de Madrid-Toledo 12500,12500,Carretera de Madrid-Toledo,40.3126657455445,-3.73929432334427,B1,http://www.crtm.es,0,,Europe/Madrid,2
par_8_12383,12383,COTO DE DOÑANA-SIERRA MORENA,Calle del Coto de Doñana 3,3,Calle del Coto de Doñana,40.2650146484375,-3.69402098655701,B2,http://www.crtm.es,0,,Europe/Madrid,2
par_8_12384,12384,COTO DE DOÑANA-SIERRA MORENA,Calle del Coto de Doñana 4,4,Calle del Coto de Doñana,40.265323638916,-3.69398880004883,B2,http://www.crtm.es,0,,Europe/Madrid,2
par_8_12533,12533,RÍO ALMANZORA-RÍO GUADALETE,Calle Río Almanzora SN,,Calle Río Almanzora,40.2709999084473,-3.70849013328552,B2,http://www.crtm.es,0,,Europe/Madrid,2
par_8_16006,16006,FERROCARRIL-ESTACIÓNGETAFE CENTRO,Calle Ferrocarril 2,2,Calle Ferrocarril,40.3096110552793,-3.73372998001551,B1,http://www.crtm.es,0,,Europe/Madrid,2
par_8_16007,16007,FERROCARRIL-ESTACIÓNGETAFE CENTRO,Calle Ferrocarril 2,2,Calle Ferrocarril,40.3091666537654,-3.73419589368629,B1,http://www.crtm.es,0,,Europe/Madrid,2
par_8_16274,16274,PASEO DE LA ESTACIÓN-FRANCISCO PIZARRO,Paseo de la Estación 3,3,Paseo de la Estación,40.3134253018705,-3.73177056432889,B1,http://www.crtm.es,0,,Europe/Madrid,2
par_8_16275,16275,PASEO ESTACIÓN-MAGALLANES,Paseo de la Estación 17,17,Paseo de la Estación,40.3157837280395,-3.73065440988124,B1,http://www.crtm.es,0,,Europe/Madrid,2
par_8_16333,16333,JOSÉ MARÍA PEMÁN-PARLA,Calle José María Pemán 2,2,Calle José María Pemán,40.193717956543,-3.6887469291687,B3,http://www.crtm.es,0,,Europe/Madrid,2
par_8_17477,17477,PASEO ESTACIÓN-JOAN FONT,Paseo de la Estación 13,13,Paseo de la Estación,40.3169189436827,-3.73064310834098,B1,http://www.crtm.es,0,,Europe/Madrid,2
par_8_17478,17478,PASEO DE LA ESTACIÓN-TERRADAS,Paseo de la Estación 5,5,Paseo de la Estación,40.3142526664212,-3.73200310617511,B1,http://www.crtm.es,0,,Europe/Madrid,2
par_8_17941,17941,ROSALÍA DE CASTRO-GLORIETA EULALIA ABAITUA,Calle Rosalía de Castro 31,31,Calle Rosalía de Castro,40.1945266723633,-3.69538116455078,B3,http://www.crtm.es,0,,Europe/Madrid,0
par_8_17942,17942,ROSALÍA DE CASTRO-GLORIETA EULALIA ABAITUA,Calle Rosalía de Castro 31,31,Calle Rosalía de Castro,40.1947174072266,-3.69537138938904,B3,http://www.crtm.es,0,,Europe/Madrid,0
par_8_18891,18891,AGUSTINA DE ARAGÓN-SUPERMERCADO,Calle Agustina de Aragón 10,10,Calle Agustina de Aragón,40.1928062438965,-3.69243836402893,B3,http://www.crtm.es,0,,Europe/Madrid,0
par_8_18892,18892,AGUSTINA DE ARAGÓN-SUPERMERCADO,Calle Agustina de Aragón 10,10,Calle Agustina de Aragón,40.1925048828125,-3.69284653663635,B3,http://www.crtm.es,0,,Europe/Madrid,0
par_8_16410,16410,PATRIMONIO MUNDIAL-MIRÓ,Calle del Patrimonio Mundial 4,4,Calle del Patrimonio Mundial,40.0601425170898,-3.60737490653992,C1,http://www.crtm.es,0,,Europe/Madrid,2
par_8_16735,16735,PASEO DE LA CHOPERA-LEGAZPI,Paseo de la Chopera 73,73,Paseo de la Chopera,40.3918190002441,-3.69585108757019,A,http://www.crtm.es,0,,Europe/Madrid,2
par_8_18348,18348,PLAZA UNESCO-MÉRIDA,Plaza de la Unesco 1,1,Plaza de la Unesco,40.0563545227051,-3.60589933395386,C1,http://www.crtm.es,0,,Europe/Madrid,0
par_8_18349,18349,CIUDAD DE TOLEDO-PATRIMONIO MUNDIAL,Calle de la Ciudad de Toledo 1,1,Calle de la Ciudad de Toledo,40.0619125366211,-3.6081645488739,C1,http://www.crtm.es,0,,Europe/Madrid,0
par_8_18350,18350,CÓRDOBA-CATEDRAL DE BURGOS,Calle de Córdoba 30,30,Calle de Córdoba,40.0640182495117,-3.60522842407227,C1,http://www.crtm.es,0,,Europe/Madrid,0
par_8_18351,18351,AVENIDA PAZ DE HIROSIMA-SANTIAGO COMPOSTELA,Avenida Memorial de la Paz de Hirosima 52,52,Avenida Memorial de la Paz de Hirosima,40.0664939880371,-3.60378456115723,C1,http://www.crtm.es,0,,Europe/Madrid,0
par_8_18352,18352,SANTIAGO DE COMPOSTELA-PRAGA,Calle Santiago de Compostela 72,72,Calle Santiago de Compostela,40.0614700317383,-3.5997416973114,C1,http://www.crtm.es,0,,Europe/Madrid,0
par_8_18353,18353,GLORIETA VALLE DEL LOIRE-AVENIDA AMAZONAS CENTRAL,Avenida de Amazonas Central 5,5,Avenida de Amazonas Central,40.0568237304688,-3.59737944602966,C1,http://www.crtm.es,0,,Europe/Madrid,0
par_8_18354,18354,ÚBEDA-BAEZA,Calle de Úbeda 23,23,Calle de Úbeda,40.0560684204102,-3.60078477859497,C1,http://www.crtm.es,0,,Europe/Madrid,0
par_8_18680,18680,SANTIAGO DE COMPOSTELA-OVIEDO,Calle Santiago de Compostela 30,30,Calle Santiago de Compostela,40.0641174316406,-3.60132455825806,C1,http://www.crtm.es,0,,Europe/Madrid,0
par_8_09067,09067,CHINCHÓN-CONVENTO,Calle Abapiés 1,1,Calle Abapiés,40.1389465332031,-3.42651343345642,C1,http://www.crtm.es,0,,Europe/Madrid,2
par_8_09068,09068,CHINCHÓN-RONDA DEL MEDIODÍA,Calle Ronda del Mediodía 41,41,Calle Ronda del Mediodía,40.1392478942871,-3.41780495643616,C1,http://www.crtm.es,0,,Europe/Madrid,2
par_8_09218,09218,VILLACONEJOS-PLAZA ALEGRÍA,Plaza de la Alegría 4,4,Plaza de la Alegría,40.1041564941406,-3.48700165748596,C1,http://www.crtm.es,0,,Europe/Madrid,2
par_8_09239,09239,CHINCHÓN-RONDA DEL MEDIODÍA,Calle Ronda del Mediodía 16,16,Calle Ronda del Mediodía,40.1389961242676,-3.41772127151489,C1,http://www.crtm.es,0,,Europe/Madrid,2
par_8_09240,09240,CARRETERA M317-AYUNTAMIENTO,Carretera M-317 (Perales de Tajuña) 2,317,Carretera M-317 (Perales de Tajuña),40.1614303588867,-3.36651968955994,C2,http://www.crtm.es,0,,Europe/Madrid,2
par_8_09241,09241,COLMENAR-RESIDENCIA,Calle Madrid 23,23,Calle Madrid,40.1137924194336,-3.39250206947327,C2,http://www.crtm.es,0,,Europe/Madrid,2
par_8_09242,09242,COLMENAR-RESIDENCIA,Calle Madrid 28,28,Calle Madrid,40.1135787963867,-3.39211344718933,C2,http://www.crtm.es,0,,Europe/Madrid,2
par_8_09245,09245,BELMONTE-PLAZA VALENCIA,Glorieta de Valencia 10,10,Glorieta de Valencia,40.1331329345703,-3.33651828765869,C2,http://www.crtm.es,0,,Europe/Madrid,2
par_8_09721,09721,ENCOMIENDA-CASTILLO,Calle de la Encomienda 1 Z,1Z,Calle de la Encomienda,40.1680183410645,-3.27399826049805,C2,http://www.crtm.es,0,,Europe/Madrid,2
par_8_10439,10439,RONDA CARLOS III-REAL CORTIJO SAN ISIDRO,Ronda de Carlos III (Cortijo) 43,43,Ronda de Carlos III (Cortijo),40.0541191101074,-3.56507897377014,C1,http://www.crtm.es,0,,Europe/Madrid,2
par_8_10440,10440,RONDA CARLOS III-REAL CORTIJO SAN ISIDRO,Ronda de Carlos III (Cortijo) 2,2,Ronda de Carlos III (Cortijo),40.0541076660156,-3.56560635566711,C1,http://www.crtm.es,0,,Europe/Madrid,2
par_8_11371,11371,VILLACONEJOS-CENTRO CULTURAL,Carretera de Chinchón 20900,20900,Carretera de Chinchón,40.1054191589355,-3.48223519325256,C1,http://www.crtm.es,0,,Europe/Madrid,2
par_8_11703,11703,CARRETERA M320-URTAJO 2,Carretera Villaconejos-Puente Villarrubia 12500,12500,Carretera Villaconejos-Puente Villarrubia,40.0773315429688,-3.48552012443542,C2,http://www.crtm.es,0,,Europe/Madrid,2
par_8_11704,11704,CARRETERA M320-BALCÓN DEL TAJO,Urb Balcón del Tajo 1,1,Urb Balcón del Tajo,40.0648078918457,-3.48789381980896,C2,http://www.crtm.es,0,,Europe/Madrid,2
par_8_11705,11705,CARRETERA M320-URTAJO 2,Avenida el Jardín de Miraltajo 55,55,Avenida el Jardín de Miraltajo,40.0776901245117,-3.48542904853821,C2,http://www.crtm.es,0,,Europe/Madrid,2
par_8_11706,11706,CARRETERA M320-BALCÓN DEL TAJO,Carretera Villaconejos-Puente Villarrubia 13900,13900,Carretera Villaconejos-Puente Villarrubia,40.0652046203613,-3.48766207695007,C2,http://www.crtm.es,0,,Europe/Madrid,2
par_8_11707,11707,ITALIA-URB.VALLE SAN JUAN,Calle Italia 2,2,Calle Italia,40.0717315673828,-3.45347666740417,C2,http://www.crtm.es,0,,Europe/Madrid,2
par_8_11708,11708,CARRETERA M318-URB.LOS VALLEJOS,Carretera de Colmenar de Oreja-Aranjuez 8300,8300,Carretera de Colmenar de Oreja-Aranjuez,40.0788154602051,-3.4499933719635,C2,http://www.crtm.es,0,,Europe/Madrid,2
par_8_11709,11709,VILLACONEJOS-URB.SAN ISIDRO,Carretera de Aranjuez 51,51,Carretera de Aranjuez,40.0987663269043,-3.49143099784851,C1,http://www.crtm.es,0,,Europe/Madrid,2
par_8_12128,12128,VILLACONEJOS-PLAZA ALEGRÍA,Plaza de la Alegría 8,8,Plaza de la Alegría,40.1040000915527,-3.48703575134277,C1,http://www.crtm.es,0,,Europe/Madrid,2
par_8_12129,12129,CARRETERA M305A-TALLERES,Carretera Aranjuez-Villaconejos 14900,14900,Carretera Aranjuez-Villaconejos,40.0586814880371,-3.52837014198303,C2,http://www.crtm.es,0,,Europe/Madrid,2
par_8_12130,12130,CARRETERA M305-TALLERES,Carretera Aranjuez-Villaconejos 14800,14800,Carretera Aranjuez-Villaconejos,40.0579605102539,-3.52864599227905,C2,http://www.crtm.es,0,,Europe/Madrid,2
par_8_12205,12205,VILLACONEJOS-URB.SAN ISIDRO,Carretera de Aranjuez 19800,19800,Carretera de Aranjuez,40.0986099243164,-3.4918053150177,C1,http://www.crtm.es,0,,Europe/Madrid,2
par_8_12208,12208,CHINCHÓN-CONVENTO,Calle Abapiés 1,1,Calle Abapiés,40.1389350891113,-3.42671275138855,C1,http://www.crtm.es,0,,Europe/Madrid,2
par_8_12394,12394,BELMONTE-CARRETERA VALDELAGUNA,Carretera de Valdelaguna 26,26,Carretera de Valdelaguna,40.1321220397949,-3.34082102775574,C2,http://www.crtm.es,0,,Europe/Madrid,2
par_8_12395,12395,BELMONTE-CARRETERA VALDELAGUNA,Carretera de Valdelaguna 47,47,Carretera de Valdelaguna,40.1326217651367,-3.34170365333557,C2,http://www.crtm.es,0,,Europe/Madrid,2
par_8_12665,12665,BELMONTE-LAS FLORES,Calle Belmonte 10,10,Calle Belmonte,40.1685256958008,-3.28080010414124,C2,http://www.crtm.es,0,,Europe/Madrid,2
par_8_12666,12666,BELMONTE-POLIDEPORTIVO,Calle Belmonte 16,16,Calle Belmonte,40.1679649353027,-3.2811267375946,C2,http://www.crtm.es,0,,Europe/Madrid,2
par_8_12667,12667,CARRETERA M320-URTAJO 1,Carretera Villaconejos-Puente Villarrubia 11700,11700,Carretera Villaconejos-Puente Villarrubia,40.0834541320801,-3.48641991615295,C2,http://www.crtm.es,0,,Europe/Madrid,2
par_8_12668,12668,CARRETERA M320-URTAJO 1,Carretera Villaconejos-Puente Villarrubia 11700,11700,Carretera Villaconejos-Puente Villarrubia,40.0837707519531,-3.4859881401062,C2,http://www.crtm.es,0,,Europe/Madrid,2
par_8_12808,12808,JOSÉ ANTONIO-TRAVESÍADE LA FUENTE,Calle de la Fuente 12300,12300,Calle de la Fuente,40.1605796813965,-3.3707160949707,C2,http://www.crtm.es,0,,Europe/Madrid,2
par_8_12809,12809,JOSÉ ANTONIO-TRAVESÍADE LA FUENTE,Travesía de José Antonio 13,13,Travesía de José Antonio,40.1604156494141,-3.37058591842651,C2,http://www.crtm.es,0,,Europe/Madrid,2
par_8_12810,12810,COLMENAR-CONVENTO,Calle de Afuera Pastores 2,2,Calle de Afuera Pastores,40.1069755554199,-3.39368057250977,C2,http://www.crtm.es,0,,Europe/Madrid,2
par_8_12811,12811,COLMENAR-CONVENTO,Calle del Convento 46,46,Calle del Convento,40.1068687438965,-3.39391469955444,C2,http://www.crtm.es,0,,Europe/Madrid,2
par_8_16094,16094,VALDELAGUNA-CARRETERA VILLAREJO,Carretera M-316 (Villarejo de Salvanés) 4 B,316,Carretera M-316 (Villarejo de Salvanés),40.1605758666992,-3.36332106590271,C2,http://www.crtm.es,0,,Europe/Madrid,2
par_8_16095,16095,VALDELAGUNA-CARRETERA VILLAREJO,Carretera M-316 (Villarejo de Salvanés) 5300,316,Carretera M-316 (Villarejo de Salvanés),40.1604156494141,-3.36275672912598,C2,http://www.crtm.es,0,,Europe/Madrid,2
par_8_16648,16648,COLMENAR-ESTACIÓN DE AUTOBUSES,Calle Malcasado 50,50,Calle Malcasado,40.1115798950195,-3.38970828056335,C2,http://www.crtm.es,0,,Europe/Madrid,2
par_8_18178,18178,CHINCHÓN-CARRETERA MADRID,Calle Carretera de Madrid 30,30,Calle Carretera de Madrid,40.1376800537109,-3.41483736038208,C1,http://www.crtm.es,0,,Europe/Madrid,0
par_8_18179,18179,CHINCHÓN-CARRETERA DE MADRID,Calle Toledo 10,10,Calle Toledo,40.1379165649414,-3.41472125053406,C1,http://www.crtm.es,0,,Europe/Madrid,0
par_8_18708,18708,CARRETERA . DE VILLAREJO-AVENIDA FELIPE SERRANO,Carretera de Villarejo 68800,68800,Carretera de Villarejo,40.1328735351563,-3.33551621437073,C2,http://www.crtm.es,0,,Europe/Madrid,0
par_8_19405,19405,CARRETERA M317-AYUNTAMIENTO,Carretera M-317 (Perales de Tajuña) 2,317,Carretera M-317 (Perales de Tajuña),40.1615028381348,-3.36637926101685,C2,http://www.crtm.es,0,,Europe/Madrid,0
par_8_19880,19880,BELMONTE-POLIDEPORTIVO,Calle Belmonte 16,16,Calle Belmonte,40.1678848266602,-3.28140807151794,C2,http://www.crtm.es,0,,Europe/Madrid,0
par_8_19881,19881,SAN JOSÉ-ENCOMIENDA,Calle de San José 2,2,Calle de San José,40.167594909668,-3.27412581443787,C2,http://www.crtm.es,0,,Europe/Madrid,0
par_8_19882,19882,ENCOMIENDA-SAN JOSÉ,Calle de la Encomienda 6,6,Calle de la Encomienda,40.1675682067871,-3.27356195449829,C2,http://www.crtm.es,0,,Europe/Madrid,0
par_8_07997,07997,RÍO MANZANARES-PLAZA DE TOROS,Calle Río Manzanares 23,23,Calle Río Manzanares,40.193977355957,-3.68468475341797,B3,http://www.crtm.es,0,,Europe/Madrid,2
par_8_10762,10762,AVENIDA ANDALUCÍA-PASEO DE LA ESTACIÓN,Paseo de la Estación 2,2,Paseo de la Estación,40.1912040710449,-3.67355513572693,B3,http://www.crtm.es,0,,Europe/Madrid,2
par_8_11985,11985,PASEO ENRIQUE TIERNO GALVÁN-COLEGIO,Paseo de Enrique Tierno Galván 23,23,Paseo de Enrique Tierno Galván,40.186882019043,-3.67320680618286,B3,http://www.crtm.es,0,,Europe/Madrid,2
par_8_12892,12892,PASEO E.TIERNO GALVÁN-PARQUE TIERNO GALVÁN,Paseo de Enrique Tierno Galván 1,1,Paseo de Enrique Tierno Galván,40.1864051818848,-3.67624473571777,B3,http://www.crtm.es,0,,Europe/Madrid,2
par_8_13019,13019,PLAZA EMPERADOR CARLOS V-ATOCHA,Plaza del Emperador Carlos V 6,6,Plaza del Emperador Carlos V,40.4074897766113,-3.69362020492554,A,http://www.crtm.es,0,,Europe/Madrid,2
par_8_16336,16336,AVENIDA ESPAÑA-AGUADO,Avenida de España 103,103,Avenida de España,40.1842918395996,-3.69369101524353,B3,http://www.crtm.es,0,,Europe/Madrid,2
par_8_16338,16338,AVENIDA MAR EGEO-INSTITUTO,Avenida del Mar Egeo 5,5,Avenida del Mar Egeo,40.1788597106934,-3.6896538734436,B3,http://www.crtm.es,0,,Europe/Madrid,2
par_8_19050,19050,AVENIDA ESPAÑA-AVENIDA MAR EGEO,Avenida de España 103,103,Avenida de España,40.181079864502,-3.69478583335876,B3,http://www.crtm.es,0,,Europe/Madrid,0
par_8_09622,09622,ALMÍBAR-NARANJA,Calle del Almíbar 110,110,Calle del Almíbar,40.0305671691895,-3.60317444801331,C1,http://www.crtm.es,0,,Europe/Madrid,2
par_8_10441,10441,ALMÍBAR-CALANDRIA,Calle del Almíbar 140,140,Calle del Almíbar,40.029167175293,-3.60336136817932,C1,http://www.crtm.es,0,,Europe/Madrid,2
par_8_20442,20442,REY-LA NARANJA,Calle del Rey 88,88,Calle del Rey,40.0302543640137,-3.60058164596558,C1,http://www.crtm.es,0,,Europe/Madrid,0
par_8_20443,20443,REY-GOBERNADOR,Calle del Rey,,Calle del Rey,40.0322113037109,-3.60032916069031,C1,http://www.crtm.es,0,,Europe/Madrid,0
par_8_07998,07998,LIBERTAD-HERENCIA,Calle Libertad 35,35,Calle Libertad,40.1906776428223,-3.68340635299683,B3,http://www.crtm.es,0,,Europe/Madrid,2
par_8_07999,07999,LIBERTAD-RONDA COMUNIDADES,Calle Libertad 75,75,Calle Libertad,40.1903038024902,-3.68767857551575,B3,http://www.crtm.es,0,,Europe/Madrid,2
par_8_09150,09150,PLAZA MONJAS-LUIS PLANELLES,Plaza de las Monjas 3,3,Plaza de las Monjas,40.1889381408691,-3.67632865905762,B3,http://www.crtm.es,0,,Europe/Madrid,2
par_8_09155,09155,PASEO ESTACIÓN-ESTACIÓNVALDEMORO,Paseo de la Estación 86,86,Paseo de la Estación,40.1955375671387,-3.66470432281494,B3,http://www.crtm.es,0,,Europe/Madrid,2
par_8_10758,10758,AVENIDA ANDALUCÍA-PASEO ESTACIÓN,Paseo de la Estación 2,2,Paseo de la Estación,40.1915740966797,-3.67377018928528,B3,http://www.crtm.es,0,,Europe/Madrid,2
par_8_10760,10760,PÍO BAROJA-CENTRO DE SALUD,Calle de Pío Baroja 1,1,Calle de Pío Baroja,40.1923942565918,-3.68583178520203,B3,http://www.crtm.es,0,,Europe/Madrid,2
par_8_10765,10765,PASEO ESTACIÓN-IBIZA,Paseo de la Estación 54,54,Paseo de la Estación,40.1937255859375,-3.66784691810608,B3,http://www.crtm.es,0,,Europe/Madrid,2
par_8_11035,11035,ESTRIBO-AVENIDA ANDALUCÍA,Calle Estribo 4,4,Calle Estribo,40.1893196105957,-3.6737949848175,B3,http://www.crtm.es,0,,Europe/Madrid,2
par_8_11833,11833,HERENCIA-INSTITUTO,Calle Herencia 6,6,Calle Herencia,40.1891899108887,-3.68241620063782,B3,http://www.crtm.es,0,,Europe/Madrid,2
par_8_11834,11834,LUIS PLANELLES-SESEÑA,Calle Luis Planelles 47,47,Calle Luis Planelles,40.1885643005371,-3.68020153045654,B3,http://www.crtm.es,0,,Europe/Madrid,2
par_8_15843,15843,CUBA-COLEGIO,Calle de Cuba 23,23,Calle de Cuba,40.1883735656738,-3.69067811965942,B3,http://www.crtm.es,0,,Europe/Madrid,2
par_8_19437,19437,PASEO ESTACIÓN-TENERIFE,Paseo de la Estación 25,25,Paseo de la Estación,40.1939506530762,-3.66808414459229,B3,http://www.crtm.es,0,,Europe/Madrid,0
par_8_19438,19438,PASEO ESTACIÓN-ALBERIZA,Paseo de la Estación 13,13,Paseo de la Estación,40.1923789978027,-3.67146372795105,B3,http://www.crtm.es,0,,Europe/Madrid,0
par_8_19439,19439,PASEO ESTACIÓN-ALBERIZA,Paseo de la Estación 18,18,Paseo de la Estación,40.1922264099121,-3.67128610610962,B3,http://www.crtm.es,0,,Europe/Madrid,0
par_8_12502,12502,SAN JOSÉ-DOCTOR ANDRAJO,Calle de San José 19,19,Calle de San José,40.1555252075195,-3.6158926486969,B3,http://www.crtm.es,0,,Europe/Madrid,2
par_8_15823,15823,AVENIDA VENERABLE MADRE MªANTONIA-CERVANTES,Avenida de la Venerable Madre María Antonia de la Misericordia 15,15,Avenida de la Venerable Madre María Antonia de la Misericordia,40.1599655151367,-3.62265992164612,B3,http://www.crtm.es,0,,Europe/Madrid,2
par_8_15824,15824,AVENIDA MADRE MªANTONIA-JERÓNIMO DEL MORAL,Avenida de la Venerable Madre María Antonia de la Misericordia 2,2,Avenida de la Venerable Madre María Antonia de la Misericordia,40.1603775024414,-3.61966919898987,B3,http://www.crtm.es,0,,Europe/Madrid,2
par_8_15826,15826,JERÓNIMO DEL MORAL-MIRLO,Calle de Jerónimo del Moral 69,69,Calle de Jerónimo del Moral,40.1653060913086,-3.62289643287659,B3,http://www.crtm.es,0,,Europe/Madrid,2
par_8_15828,15828,CARETOS-DULCINEA,Calle Caretos 4,4,Calle Caretos,40.1626930236816,-3.61810493469238,B3,http://www.crtm.es,0,,Europe/Madrid,2
par_8_15829,15829,AVENIDA SAN JUAN DE DIOS-PADRE BENITO MENNI,Avenida de San Juan de Dios 1 A,1A,Avenida de San Juan de Dios,40.1601181030273,-3.61585068702698,B3,http://www.crtm.es,0,,Europe/Madrid,2
par_8_15830,15830,AVENIDA SAN JUAN DE DIOS-ESTACIÓNCIEMPOZUELOS,Avenida de San Juan de Dios 9,9,Avenida de San Juan de Dios,40.1586570739746,-3.60985016822815,B3,http://www.crtm.es,0,,Europe/Madrid,2
par_8_15833,15833,SAN FRANCISCO-CRUZ VERDE,Calle de San Francisco 2,2,Calle de San Francisco,40.1534118652344,-3.6200532913208,B3,http://www.crtm.es,0,,Europe/Madrid,2
par_8_15834,15834,CALDERA DE TABURIENTE-AVENIDA CONSUELO,Calle Caldera de Taburiente 1,1,Calle Caldera de Taburiente,40.1535682678223,-3.62628817558289,B3,http://www.crtm.es,0,,Europe/Madrid,2
par_8_15836,15836,OLIMPIA-ARCHIPIÉLAGO CABRERA,Calle de Olimpia 3 B,3B,Calle de Olimpia,40.1542434692383,-3.63268184661865,B3,http://www.crtm.es,0,,Europe/Madrid,2
par_8_15837,15837,AVENIDA CONSUELO-CALDERA DE TABURIENTE,Calle Caldera de Taburiente 1,1,Calle Caldera de Taburiente,40.1537437438965,-3.62579655647278,B3,http://www.crtm.es,0,,Europe/Madrid,2
par_8_15838,15838,SAN JOSÉ-CRUZ VERDE,Calle de San José 8,8,Calle de San José,40.1552467346191,-3.61931848526001,B3,http://www.crtm.es,0,,Europe/Madrid,2
par_8_16259,16259,LAS PEÑUELAS-CUESTAS,Calle de las Peñuelas 15,15,Calle de las Peñuelas,40.1562232971191,-3.6146764755249,B3,http://www.crtm.es,0,,Europe/Madrid,2
par_8_16260,16260,VIRGEN-LOS HUERTOS,Calle de la Virgen 1,1,Calle de la Virgen,40.1582145690918,-3.61531662940979,B3,http://www.crtm.es,0,,Europe/Madrid,2
par_8_16261,16261,CAMINO DE BUZANCA-CEMENTERIO,camino de Buzanca 2,2,Cmno de Buzanca,40.1669883728027,-3.62382793426514,B3,http://www.crtm.es,0,,Europe/Madrid,2
par_8_16262,16262,CAMINO DE BUZANCA-ÁLAMO,camino de Buzanca 6,6,Cmno de Buzanca,40.1693077087402,-3.62939238548279,B3,http://www.crtm.es,0,,Europe/Madrid,2
par_8_16263,16263,ÁLAMO-NOGAL,Calle del Álamo 7,7,Calle del Álamo,40.1666831970215,-3.63022541999817,B3,http://www.crtm.es,0,,Europe/Madrid,2
par_8_17888,17888,AVENIDA SAN JUAN DE DIOS-PASEO LA ESTACIÓN,Avenida de San Juan de Dios 1,1,Avenida de San Juan de Dios,40.1598854064941,-3.61251354217529,B3,http://www.crtm.es,0,,Europe/Madrid,0
par_8_17891,17891,AVENIDA CIRCUNVALACIÓN-CAMINO PEÑUELAS,Avenida de la Circunvalación 21,21,Avenida de la Circunvalación,40.1540412902832,-3.6120867729187,B3,http://www.crtm.es,0,,Europe/Madrid,0
par_8_17892,17892,AVENIDA CIRCUNVALACIÓN-CAMINO DE VALDINOJOS,Avenida de la Circunvalación 21,21,Avenida de la Circunvalación,40.1522407531738,-3.61682558059692,B3,http://www.crtm.es,0,,Europe/Madrid,0
par_8_18948,18948,CARETOS-POZO,Calle Caretos 18,18,Calle Caretos,40.1636581420898,-3.61939382553101,B3,http://www.crtm.es,0,,Europe/Madrid,0
par_8_19422,19422,COLEGIATA-JERÓNIMO DEL MORAL,Calle de la Colegiata 2,2,Calle de la Colegiata,40.1632041931152,-3.62176179885864,B3,http://www.crtm.es,0,,Europe/Madrid,0
par_8_20177,20177,AVENIDA TOREROS-ENRIQUE GRANADOS,Avenida de los Toreros 2,2,Avenida de los Toreros,40.155891418457,-3.63011384010315,B3,http://www.crtm.es,0,,Europe/Madrid,0
par_8_20212,20212,TABLAS DE DAIMIEL-ARCHIPIÉLAGO CABRERA,Calle Picos de Europa 4,4,Calle Picos de Europa,40.154167175293,-3.63016843795776,B3,http://www.crtm.es,0,,Europe/Madrid,0
par_8_20213,20213,ARCHIPIÉLAGO CABRERA-TABLAS DE DAIMIEL,Calle Archipiélago Cabrera 31,31,Calle Archipiélago Cabrera,40.1539344787598,-3.63045978546143,B3,http://www.crtm.es,0,,Europe/Madrid,0
par_8_20318,20318,TRAVESÍAMORERAS-POLÍGONOIND.CAMPORROSO,Calle Moreras 3,3,Calle Moreras,40.1756248474121,-3.63743734359741,B3,http://www.crtm.es,0,,Europe/Madrid,0
par_8_21074,21074,OLMO-CEDRO,Calle del Olmo SN,,Calle del Olmo,40.1667251586914,-3.63245701789856,B3,http://www.crtm.es,0,,Europe/Madrid,0
par_8_11984,11984,PASEO ENRIQUE TIERNO GALVÁN-COLEGIO,Paseo de Enrique Tierno Galván 23,23,Paseo de Enrique Tierno Galván,40.186653137207,-3.67385077476501,B3,http://www.crtm.es,0,,Europe/Madrid,2
par_8_12985,12985,PASEO E.TIERNO GALVÁN-PARQUE TIERNO GALVÁN,Paseo de Enrique Tierno Galván 1,1,Paseo de Enrique Tierno Galván,40.1865043640137,-3.67624568939209,B3,http://www.crtm.es,0,,Europe/Madrid,2
par_8_11837,11837,ESPINILLO-LIBERTAD,Calle del Espinillo 1,1,Calle del Espinillo,40.1904449462891,-3.68807935714722,B3,http://www.crtm.es,0,,Europe/Madrid,2
par_8_12888,12888,DOCTOR FLEMING-DOCTOR CASTELO,Calle Doctor Fleming 22,22,Calle Doctor Fleming,40.1938514709473,-3.67590737342834,B3,http://www.crtm.es,0,,Europe/Madrid,2
par_8_12889,12889,GUARDIA CIVIL-CENTRO RAMÓN ARECES,Calle de la Guardia Civil 1,1,Calle de la Guardia Civil,40.1957015991211,-3.67812275886536,B3,http://www.crtm.es,0,,Europe/Madrid,2
par_8_12983,12983,PARLA-CENTRO DE SALUD,Calle Parla 14,14,Calle Parla,40.1919937133789,-3.68521690368652,B3,http://www.crtm.es,0,,Europe/Madrid,2
par_8_12984,12984,AVENIDA MAR MEDITERRÁNEO-ATENEA,Avenida del Mar Mediterráneo 113,113,Avenida del Mar Mediterráneo,40.1789779663086,-3.6858377456665,B3,http://www.crtm.es,0,,Europe/Madrid,2
par_8_15537,15537,CUBA-COLEGIO,Calle de Cuba 23,23,Calle de Cuba,40.1884384155273,-3.69077277183533,B3,http://www.crtm.es,0,,Europe/Madrid,2
par_8_16331,16331,ROSALIA DE CASTRO-LILI ÁLVAREZ,Calle Rosalía de Castro 4,4,Calle Rosalía de Castro,40.1946830749512,-3.69043684005737,B3,http://www.crtm.es,0,,Europe/Madrid,2
par_8_16332,16332,ROSALIA DE CASTRO-LILI ÁLVAREZ,Calle Rosalía de Castro S/N,,Calle Rosalía de Castro,40.1944885253906,-3.68996477127075,B3,http://www.crtm.es,0,,Europe/Madrid,2
par_8_17354,17354,HOSPITAL INFANTA ELENA,Avenida de los Reyes Católicos 21,21,Avenida de los Reyes Católicos,40.1979904174805,-3.69606280326843,B3,http://www.crtm.es,0,,Europe/Madrid,2
par_8_18893,18893,RONDA COMUNIDADES-RESIDENCIA,Ronda de las Comunidades 61,61,Ronda de las Comunidades,40.1864128112793,-3.68579506874084,B3,http://www.crtm.es,0,,Europe/Madrid,0
par_8_18894,18894,RONDA COMUNIDADES-ILLESCAS,Ronda de las Comunidades 107,107,Ronda de las Comunidades,40.184268951416,-3.68412899971008,B3,http://www.crtm.es,0,,Europe/Madrid,0
par_8_18895,18895,SESEÑA-ILLESCAS,Calle Seseña 31,31,Calle Seseña,40.1855621337891,-3.68215656280518,B3,http://www.crtm.es,0,,Europe/Madrid,0
par_8_18896,18896,GLORIETA UNIVERSO-SATURNO,Glorieta del Universo 6,6,Glorieta del Universo,40.18359375,-3.68238377571106,B3,http://www.crtm.es,0,,Europe/Madrid,0
par_8_21343,21343,AGUSTINA DE ARAGÓN-MARÍA MOLINER,Calle Agustina de Aragón 44,44,Calle Agustina de Aragón,40.1980628967285,-3.69176340103149,B3,http://www.crtm.es,0,,Europe/Madrid,0
par_8_13218,13218,CAMINO VALDESANCHUELA-PASEO ESTACIÓN,camino Valdesanchuela 2,2,Cmno Valdesanchuela,40.1930198669434,-3.67152881622314,B3,http://www.crtm.es,0,,Europe/Madrid,2
par_8_13220,13220,AVENIDA MORCILLERAS-CAMINO VALDESANCHUELA,Avenida de las Morcilleras 1,1,Avenida de las Morcilleras,40.1958084106445,-3.67367124557495,B3,http://www.crtm.es,0,,Europe/Madrid,2
par_8_13222,13222,AVENIDA MORCILLERAS-AVENIDA SAN ROQUE,Avenida de las Morcilleras 10,10,Avenida de las Morcilleras,40.198860168457,-3.67253828048706,B3,http://www.crtm.es,0,,Europe/Madrid,2
par_8_13223,13223,AVENIDA SUR-AVENIDA ARBOLEDAS,Avenida del Sur 13,13,Avenida del Sur,40.2006034851074,-3.67346000671387,B3,http://www.crtm.es,0,,Europe/Madrid,2
par_8_13224,13224,AVENIDA SUR-AVENIDA ANDALUCÍA,Avenida del Sur 1,1,Avenida del Sur,40.2002944946289,-3.67693495750427,B3,http://www.crtm.es,0,,Europe/Madrid,2
par_8_13225,13225,GUARDIA CIVIL-CENTRO RAMÓN ARECES,Calle Guardia Civil 10,10,Calle Guardia Civil,40.1955528259277,-3.67867350578308,B3,http://www.crtm.es,0,,Europe/Madrid,2
par_8_13227,13227,CRTA.A4-CENTRO LOGÍSTICO,Avenida de Andalucía 24700,24700,Avenida de Andalucía,40.2147903442383,-3.68304896354675,B3,http://www.crtm.es,0,,Europe/Madrid,2
par_8_13228,13228,AVENIDA MADRID-DUBLÍN,Avenida de Madrid 27,27,Avenida de Madrid,40.2140045166016,-3.68495678901672,B3,http://www.crtm.es,0,,Europe/Madrid,2
par_8_13230,13230,AVENIDA MADRID-PARÍS,Avenida de Madrid 15,15,Avenida de Madrid,40.2103042602539,-3.68456697463989,B3,http://www.crtm.es,0,,Europe/Madrid,2
par_8_13232,13232,AVENIDA MADRID-LONDRES,Avenida de Madrid 5,5,Avenida de Madrid,40.2076759338379,-3.68441128730774,B3,http://www.crtm.es,0,,Europe/Madrid,2
par_8_15555,15555,AVENIDA CONDE DUQUE-CAMINO ENTREGAS,Avenida Conde Duque 14,14,Avenida Conde Duque,40.2066459655762,-3.67666912078857,B3,http://www.crtm.es,0,,Europe/Madrid,2
par_8_15556,15556,AVENIDA MAJUELO-ALMACÉN,Avenida del Majuelo 32,32,Avenida del Majuelo,40.2080421447754,-3.67670631408691,B3,http://www.crtm.es,0,,Europe/Madrid,2
par_8_16233,16233,ANTONIO VAN DE PERE-GABRIELA MISTRAL,Calle Antonio Van de Pere 77,77,Calle Antonio Van de Pere,40.2020034790039,-3.68523526191711,B3,http://www.crtm.es,0,,Europe/Madrid,2
par_8_16234,16234,ANTONIO VAN DE PERE-MARÍA MOLINER,Calle Antonio Van de Pere 35,35,Calle Antonio Van de Pere,40.1981544494629,-3.68666529655457,B3,http://www.crtm.es,0,,Europe/Madrid,2
par_8_17253,17253,DALÍ-COLEGIO GUARDIAS JÓVENES,Calle Dalí 19,19,Calle Dalí,40.1961212158203,-3.68045330047607,B3,http://www.crtm.es,0,,Europe/Madrid,2
par_8_20175,20175,GUARDIA CIVIL-DOCTOR FLEMING,Calle de la Guardia Civil 25,25,Calle de la Guardia Civil,40.1947860717773,-3.67608118057251,B3,http://www.crtm.es,0,,Europe/Madrid,0
par_8_15376,15376,CIRCUNVALACIÓN SUR-GLORIETA POZO SAN PEDRO,Calle Circunvalación Sur S/N,,Calle Circunvalación Sur,40.1764183044434,-3.67995095252991,B3,http://www.crtm.es,0,,Europe/Madrid,2
par_8_15377,15377,G.BRAVO SOBREMONTE-NARCISO MONTURIOL,Calle Gaspar Bravo de Sobremonte 1,1,Calle Gaspar Bravo de Sobremonte,40.1753311157227,-3.67041492462158,B3,http://www.crtm.es,0,,Europe/Madrid,2
par_8_15378,15378,G.BRAVO SOBREMONTE-NARCISO MONTURIOL,Calle Gaspar Bravo de Sobremonte 1,1,Calle Gaspar Bravo de Sobremonte,40.1753158569336,-3.67008590698242,B3,http://www.crtm.es,0,,Europe/Madrid,2
par_8_15379,15379,G.BRAVO SOBREMONTE-AVENIDA B.DAZA DE VALDÉS,Calle Gaspar Bravo de Sobremonte 1,1,Calle Gaspar Bravo de Sobremonte,40.173900604248,-3.66882705688477,B3,http://www.crtm.es,0,,Europe/Madrid,2
par_8_15380,15380,G.BRAVO SOBREMONTE-AVENIDA B.DAZA DE VALDÉS,Calle Gaspar Bravo de Sobremonte 1,1,Calle Gaspar Bravo de Sobremonte,40.1737365722656,-3.66889572143555,B3,http://www.crtm.es,0,,Europe/Madrid,2
par_8_15381,15381,NARCISO MONTURIOL-AVENIDA B.DAZA DE VALDÉS,Calle Narciso Monturiol 10,10,Calle Narciso Monturiol,40.173152923584,-3.66710495948792,B3,http://www.crtm.es,0,,Europe/Madrid,2
par_8_15416,15416,CIRCUNVALACIÓNSUR-AVENIDA EUROPA,Calle Circunvalación Sur S/N,,Calle Circunvalación Sur,40.1772689819336,-3.67204308509827,B3,http://www.crtm.es,0,,Europe/Madrid,2
par_8_15417,15417,CIRCUNVALACIÓNSUR-AVENIDA EUROPA,Calle Circunvalación Sur S/N,,Calle Circunvalación Sur,40.1772422790527,-3.67160820960999,B3,http://www.crtm.es,0,,Europe/Madrid,2
par_8_15418,15418,NARCISO MONTURIOL-LEO.TORRES QUEVEDO,Calle Narciso Monturiol 2,2,Calle Narciso Monturiol,40.1711578369141,-3.66609883308411,B3,http://www.crtm.es,0,,Europe/Madrid,2
par_8_17390,17390,HOMERO-GRECIA,Calle de Homero 55,55,Calle de Homero,40.174144744873,-3.68238306045532,B3,http://www.crtm.es,0,,Europe/Madrid,2
par_8_17391,17391,HOMERO-DELFOS,Calle de Homero 11,11,Calle de Homero,40.1750373840332,-3.68678450584412,B3,http://www.crtm.es,0,,Europe/Madrid,2
par_8_17392,17392,VIRGILIO-ATLÁNTIDA,Calle de Virgilio 14,14,Calle de Virgilio,40.1759719848633,-3.69143342971802,B3,http://www.crtm.es,0,,Europe/Madrid,2
par_8_17393,17393,VIRGILIO-TEBAS,Calle Tebas 55,55,Calle Tebas,40.1765899658203,-3.69499850273132,B3,http://www.crtm.es,0,,Europe/Madrid,2
par_8_17394,17394,VIRGILIO-ATLÁNTIDA,Calle de Virgilio 14,14,Calle de Virgilio,40.1757583618164,-3.6911609172821,B3,http://www.crtm.es,0,,Europe/Madrid,2
par_8_20826,20826,GASPAR BRAVO DE SOBREMONTE-ROSARIO,Calle Gaspar Bravo de Sobremonte 18,18,Calle Gaspar Bravo de Sobremonte,40.1761856079102,-3.67070508003235,B3,http://www.crtm.es,0,,Europe/Madrid,0
par_8_20827,20827,GASPAR BRAVO DE SOBREMONTE-ROSARIO,Calle Gaspar Bravo de Sobremonte 18,18,Calle Gaspar Bravo de Sobremonte,40.1763114929199,-3.67058897018433,B3,http://www.crtm.es,0,,Europe/Madrid,0
par_8_16229,16229,GRAN CANARIA-DRAGONERA,Calle Gran Canaria 65,65,Calle Gran Canaria,40.1921730041504,-3.66494154930115,B3,http://www.crtm.es,0,,Europe/Madrid,2
par_8_16396,16396,GRAN CANARIA-PASEO PRADO,Calle Gran Canaria 65,65,Calle Gran Canaria,40.1921806335449,-3.66508269309998,B3,http://www.crtm.es,0,,Europe/Madrid,2
par_8_16397,16397,CTA.VALDERREMATA-TANATORIO,Custa Valderremata 7,7,Custa Valderremata,40.190071105957,-3.66584920883179,B3,http://www.crtm.es,0,,Europe/Madrid,2
par_8_16398,16398,CTA.VALDERREMATA-TANATORIO,Custa Valderremata 7,7,Custa Valderremata,40.1904029846191,-3.66594648361206,B3,http://www.crtm.es,0,,Europe/Madrid,2
par_8_16399,16399,RONDA DE SAN SEBASTIÁN-COLEGIO,Ronda de San Sebastián 7,7,Ronda de San Sebastián,40.1874389648438,-3.67054581642151,B3,http://www.crtm.es,0,,Europe/Madrid,2
par_8_16400,16400,RONDA DE SAN SEBASTIÁN-COLEGIO,Ronda de San Sebastián 7,7,Ronda de San Sebastián,40.1874198913574,-3.67100381851196,B3,http://www.crtm.es,0,,Europe/Madrid,2
par_8_16317,16317,CAMINO DE PINTO-GUARDIA CIVIL,Calle Camino de Pinto 37,37,Calle Camino de Pinto,40.1969680786133,-3.6817774772644,B3,http://www.crtm.es,0,,Europe/Madrid,2
par_8_16318,16318,CAMINO DE PINTO-DALÍ,Calle Camino de Pinto 37,37,Calle Camino de Pinto,40.1968688964844,-3.68204665184021,B3,http://www.crtm.es,0,,Europe/Madrid,2
par_8_16319,16319,CAMINO DE PINTO-GREGORIO PRIETO,Calle Camino de Pinto 64,64,Calle Camino de Pinto,40.1994514465332,-3.68241333961487,B3,http://www.crtm.es,0,,Europe/Madrid,2
par_8_16320,16320,CAMINO DE PINTO-GREGORIO PRIETO,Calle Camino de Pinto 64,64,Calle Camino de Pinto,40.1996383666992,-3.68275594711304,B3,http://www.crtm.es,0,,Europe/Madrid,2
par_8_16321,16321,TRABAJADORAS DE COTTON-AVENIDA MADRID,Calle de las Trabajadoras de Cotton 3,3,Calle de las Trabajadoras de Cotton,40.2027587890625,-3.68511366844177,B3,http://www.crtm.es,0,,Europe/Madrid,2
par_8_16322,16322,TRABAJADORAS DE COTTON-GABRIELA MISTRAL,Calle de las Trabajadoras de Cotton 3,3,Calle de las Trabajadoras de Cotton,40.2026329040527,-3.68535923957825,B3,http://www.crtm.es,0,,Europe/Madrid,2
par_8_16323,16323,TRABAJADORAS COTTON-GLORIETA JULIANA EYBECK,Calle de las Trabajadoras de Cotton 2,2,Calle de las Trabajadoras de Cotton,40.2064437866211,-3.68820595741272,B3,http://www.crtm.es,0,,Europe/Madrid,2
par_8_16324,16324,TRABAJADORAS COTTON-GLORIETA JULIANA EYBECK,Calle de las Trabajadoras de Cotton 2,2,Calle de las Trabajadoras de Cotton,40.2062187194824,-3.68838000297546,B3,http://www.crtm.es,0,,Europe/Madrid,2
par_8_16325,16325,TRABAJADORAS COTTON-GLORIETA MARIANA PINEDA,Glorieta de Mariana Pineda 8,8,Glorieta de Mariana Pineda,40.2093772888184,-3.69042134284973,B3,http://www.crtm.es,0,,Europe/Madrid,2
par_8_16326,16326,TRABAJADORAS COTTON-GLORIETA MARIANA PINEDA,Calle de las Trabajadoras de Cotton 66,66,Calle de las Trabajadoras de Cotton,40.2088432312012,-3.69054508209229,B3,http://www.crtm.es,0,,Europe/Madrid,2
par_8_16327,16327,AGUSTINA DE ARAGÓN-GLORIETA TERESA DE JESÚS,Calle Agustina de Aragón 46,46,Calle Agustina de Aragón,40.2016830444336,-3.692223072052,B3,http://www.crtm.es,0,,Europe/Madrid,2
par_8_16328,16328,AGUSTINA DE ARAGÓN-TERESA DE CALCUTA,Calle Agustina de Aragón 46,46,Calle Agustina de Aragón,40.2018356323242,-3.6917781829834,B3,http://www.crtm.es,0,,Europe/Madrid,2
par_8_16329,16329,AGUSTINA ARAGÓN-GLORIETA JOSEFINA CARABIAS,Calle Agustina de Aragón 44,44,Calle Agustina de Aragón,40.198917388916,-3.69205403327942,B3,http://www.crtm.es,0,,Europe/Madrid,2
par_8_16330,16330,AGUSTINA ARAGÓN-GLORIETA JOSEFINA CARABIAS,Calle Agustina de Aragón 44,44,Calle Agustina de Aragón,40.1989707946777,-3.69178438186646,B3,http://www.crtm.es,0,,Europe/Madrid,2
par_8_16339,16339,AVENIDA MAR EGEO-POSEIDÓN,Avenida del Mar Egeo 5,5,Avenida del Mar Egeo,40.1791877746582,-3.69009160995483,B3,http://www.crtm.es,0,,Europe/Madrid,2
par_8_17355,17355,AVENIDA R.CATÓLICOS-HOSPITAL INFANTA ELENA,Avenida de los Reyes Católicos 21,21,Avenida de los Reyes Católicos,40.1980209350586,-3.69576930999756,B3,http://www.crtm.es,0,,Europe/Madrid,2
par_8_19049,19049,AVENIDA ESPAÑA-AVENIDA MAR EGEO,Avenida de España 103,103,Avenida de España,40.1813507080078,-3.69444799423218,B3,http://www.crtm.es,0,,Europe/Madrid,0
par_8_11052,11052,ÁGUILA-POLÍGONOIND.LA ESTACIÓN,Calle Águila SN,,Calle Águila,40.2458073968729,-3.70931474360972,B2,http://www.crtm.es,0,,Europe/Madrid,2
par_8_11381,11381,ÁGUILAS-POLÍGONOIND.PINTO ESTACIÓN,Calle de Águilas 14,14,Calle de Águilas,40.2461392743852,-3.70955335126109,B2,http://www.crtm.es,0,,Europe/Madrid,2
par_8_12971,12971,F.GARCÍA LORCA-SANTA TERESA,Calle de Federico García Lorca 56,56,Calle de Federico García Lorca,40.2386856079102,-3.69620895385742,B2,http://www.crtm.es,0,,Europe/Madrid,2
par_8_15808,15808,FERROCARRIL-SAN PASCUAL BAILÓN,Calle del Ferrocarril 22,22,Calle del Ferrocarril,40.2459297180176,-3.70360803604126,B2,http://www.crtm.es,0,,Europe/Madrid,2
par_8_15809,15809,FERROCARRIL-ESTACIÓNPINTO,Calle del Ferrocarril 2,2,Calle del Ferrocarril,40.2427444458008,-3.70291757583618,B2,http://www.crtm.es,0,,Europe/Madrid,2
par_8_16452,16452,PABLO PICASSO-SANTA TERESA,Calle de Pablo Picasso 17,17,Calle de Pablo Picasso,40.2383079528809,-3.6943359375,B2,http://www.crtm.es,0,,Europe/Madrid,2
par_8_16461,16461,ANTONIO TAPIES-LUCIO MUÑOZ,Calle Antonio Tapies 8,8,Calle Antonio Tapies,40.2486152648926,-3.70181345939636,B2,http://www.crtm.es,0,,Europe/Madrid,2
par_8_18580,18580,AVENIDA JUAN PABLO II-PASEO LAS ARTES,Avenida Juan Pablo II 22,22,Avenida Juan Pablo II,40.2590293884277,-3.69477105140686,B2,http://www.crtm.es,0,,Europe/Madrid,0
par_8_18793,18793,MARIA BLANCHARD-MARTIN CHIRINO,Calle María Blanchard 8,8,Calle María Blanchard,40.2518348693848,-3.70155262947083,B2,http://www.crtm.es,0,,Europe/Madrid,0
par_8_18794,18794,ASTURIAS-AUSTRIA,Calle Asturias 20,20,Calle Asturias,40.2550773620605,-3.69253182411194,B2,http://www.crtm.es,0,,Europe/Madrid,0
par_8_18795,18795,AVENIDA . NACIONES-ASTURIAS,Avenida de las Naciones 5,5,Avenida de las Naciones,40.2521476745605,-3.69285464286804,B2,http://www.crtm.es,0,,Europe/Madrid,0
par_8_18796,18796,ALPUJARRAS-SAN JUAN,Calle de las Alpujarras 41,41,Calle de las Alpujarras,40.2454071044922,-3.69346785545349,B2,http://www.crtm.es,0,,Europe/Madrid,0
par_8_18797,18797,ALPUJARRAS-C.C.PLAZA ÉBOLI,Calle de las Alpujarras 3,3,Calle de las Alpujarras,40.241153717041,-3.69335389137268,B2,http://www.crtm.es,0,,Europe/Madrid,0
par_8_18798,18798,F.GARCÍA LORCA-CENTRO MUNICIPAL,Calle de Salvador Dalí 19,19,Calle de Salvador Dalí,40.2377014160156,-3.69811511039734,B2,http://www.crtm.es,0,,Europe/Madrid,0
par_8_19901,19901,PEDRO FAURA-NICARAGUA,Calle de Pedro Faura 17,17,Calle de Pedro Faura,40.240161895752,-3.70098543167114,B2,http://www.crtm.es,0,,Europe/Madrid,0
par_8_20994,20994,AVENIDA JUAN PABLO II-MATILDE SALVADOR,Avenida Juan Pablo II 24,24,Avenida Juan Pablo II,40.2592849731445,-3.70291137695313,B2,http://www.crtm.es,0,,Europe/Madrid,0
par_8_21000,21000,ALCOTANES-PALOMAS,Calle de Alcotanes 20,20,Calle de Alcotanes,40.2495422363281,-3.71101760864258,B2,http://www.crtm.es,0,,Europe/Madrid,0
par_8_21001,21001,GRULLAS-ALCOTANES,Calle de las Grullas 19,19,Calle de las Grullas,40.253662109375,-3.71189546585083,B2,http://www.crtm.es,0,,Europe/Madrid,0
par_8_21003,21003,AVENIDA UTARDAS-GRULLAS,Calle Avutardas 13,13,Calle Avutardas,40.2535781860352,-3.71665692329407,B2,http://www.crtm.es,0,,Europe/Madrid,0
par_8_21004,21004,PALOMAS-BUHOS,Calle de las Palomas 1,1,Calle de las Palomas,40.2496223449707,-3.71586275100708,B2,http://www.crtm.es,0,,Europe/Madrid,0
par_8_21005,21005,ALCOTANES-PALOMAS,Calle de Alcotanes 19,19,Calle de Alcotanes,40.2495193481445,-3.71164059638977,B2,http://www.crtm.es,0,,Europe/Madrid,0
par_8_21087,21087,AVENIDA JUAN PABLO II-MANUEL DE FALLA,Avenida Juan Pablo II 22,22,Avenida Juan Pablo II,40.2590293884277,-3.69911050796509,B2,http://www.crtm.es,0,,Europe/Madrid,0
par_8_15280,15280,CATALUÑA-RIOJA,Calle Cataluña 25,25,Calle Cataluña,40.2493901013167,-3.6979471478109,B2,http://www.crtm.es,0,,Europe/Madrid,2
par_8_19321,19321,TANATORIO CEMENTERIO,camino del El Esparragal 1,1,Cmno del El Esparragal,40.2580490112305,-3.72815775871277,B2,http://www.crtm.es,0,,Europe/Madrid,0
par_8_20993,20993,AVENIDA JUAN PABLO II-MATILDE SALVADOR,Avenida Juan Pablo II 23,23,Avenida Juan Pablo II,40.2590255737305,-3.70276761054993,B2,http://www.crtm.es,0,,Europe/Madrid,0
par_8_20995,20995,PABLO PICASSO-INSTITUTO,Calle de Pablo Picasso 21,21,Calle de Pablo Picasso,40.238639831543,-3.69358682632446,B2,http://www.crtm.es,0,,Europe/Madrid,0
par_8_20996,20996,CASTILLA-SANTO ÁNGEL,Calle de Castilla 23,23,Calle de Castilla,40.2475814819336,-3.6984281539917,B2,http://www.crtm.es,0,,Europe/Madrid,0
par_8_20997,20997,ALPUJARRAS-C.C.PLAZA ÉBOLI,Calle de las Alpujarras 3,3,Calle de las Alpujarras,40.2411727905273,-3.69318962097168,B2,http://www.crtm.es,0,,Europe/Madrid,0
par_8_20998,20998,ALPUJARRAS-SAN JUAN,Calle de las Alpujarras 41,41,Calle de las Alpujarras,40.2455406188965,-3.69331645965576,B2,http://www.crtm.es,0,,Europe/Madrid,0
par_8_20999,20999,ASTURIAS-PISCINA,Calle Asturias 71,71,Calle Asturias,40.252368927002,-3.69224548339844,B2,http://www.crtm.es,0,,Europe/Madrid,0
par_8_21006,21006,HISPANIDAD-PASEO DE LAS ARTES,Calle de la Hispanidad 27,27,Calle de la Hispanidad,40.2555274963379,-3.69392395019531,B2,http://www.crtm.es,0,,Europe/Madrid,0
par_8_21086,21086,AVENIDA JUAN PABLO II-MANUEL DE FALLA,Avenida Juan Pablo II 22,22,Avenida Juan Pablo II,40.2593078613281,-3.69911336898804,B2,http://www.crtm.es,0,,Europe/Madrid,0
par_8_19986,19986,PASEO DEL PRADO-PISCINA MUNICIPAL,Paseo del Prado 70,70,Paseo del Prado,40.1923446655273,-3.6600444316864,B3,http://www.crtm.es,0,,Europe/Madrid,0
par_8_20215,20215,CAMINO VALTIJAREJO-RECINTO FERIAL,camino Hondo 51,51,Cmno Hondo,40.1937446594238,-3.65638065338135,B3,http://www.crtm.es,0,,Europe/Madrid,0
par_8_06879,06879,RONDA HISPANOAMERICANA-PASEO MADRID,Ronda Hispano-Americana 176,176,Ronda Hispano-Americana,40.3490943908691,-3.2687361240387,C2,http://www.crtm.es,0,,Europe/Madrid,2
par_8_06880,06880,RONDA HISPANOAMERICANA-CINCO,Ronda Hispano-Americana 58,58,Ronda Hispano-Americana,40.3533248901367,-3.24981689453125,C2,http://www.crtm.es,0,,Europe/Madrid,2
par_8_06881,06881,RONDA HISPANOAMERICANA-CASA JUVENTUD,Ronda Hispano-Americana 1,1,Ronda Hispano-Americana,40.3598785400391,-3.24330472946167,C2,http://www.crtm.es,0,,Europe/Madrid,2
par_8_06952,06952,ALALPARDO-CONSERVATORIO,Calle Alalpardo 2,2,Calle Alalpardo,40.4907984817843,-3.36962230690364,B3,http://www.crtm.es,0,,Europe/Madrid,2
par_8_06976,06976,PLAZA PUERTA DEL VADO-PASEO LAS MORERAS,Plaza Puerta del Vado 3,3,Plaza Puerta del Vado,40.4770779356271,-3.366786443771,B3,http://www.crtm.es,0,,Europe/Madrid,2
par_8_06980,06980,LUIS VIVES-CENTRO DE SALUD,Calle Luis Vives 11,11,Calle Luis Vives,40.4752998352051,-3.3677225112915,B3,http://www.crtm.es,0,,Europe/Madrid,2
par_8_07308,07308,VALVERDE DE ALCALÁ-CARRETERA DE TORRES,Carretera M-225 (Torres de la Alameda) 10800,225,Carretera M-225 (Torres de la Alameda),40.417911529541,-3.29985690116882,C1,http://www.crtm.es,0,,Europe/Madrid,2
par_8_08998,08998,CARRETERA M300-EL GURUGÚ,Carretera M-300 (Alcalá-Loeches) 22.850,300,Carretera M-300 (Alcalá-Loeches) 22.,40.45113321773,-3.34599592281583,C1,http://www.crtm.es,0,,Europe/Madrid,2
par_8_08999,08999,CARRETERA M300-EL GURUGÚ,Carretera M-300 (Alcalá-Loeches) 23.800,300,Carretera M-300 (Alcalá-Loeches) 23.,40.4520710530623,-3.34569411246694,C1,http://www.crtm.es,0,,Europe/Madrid,2
par_8_09004,09004,ALAMEDA-BAÑOS,Calle de la Alameda 5700,5700,Calle de la Alameda,40.4083290100098,-3.36357450485229,C1,http://www.crtm.es,0,,Europe/Madrid,2
par_8_09157,09157,RONDA HISPANOAMERICANA-NUEVE,Ronda Hispano-Americana 128,128,Ronda Hispano-Americana,40.350887298584,-3.26071214675903,C2,http://www.crtm.es,0,,Europe/Madrid,2
par_8_09160,09160,CARRETERA M219-URB.LAS VILLAS,Carretera de M-219 (Pozuelo del Rey) 13300,219,Carretera de M-219 (Pozuelo del Rey),40.3649787902832,-3.26778626441956,C2,http://www.crtm.es,0,,Europe/Madrid,2
par_8_09163,09163,CARRETERA M204-COLONIA SAN FRANCISCO,Calle A 4,4,Calle A,40.3644371032715,-3.24358034133911,C2,http://www.crtm.es,0,,Europe/Madrid,2
par_8_09171,09171,PILILLA-PLAZA JOSÉ ANTONIO,Calle Pililla 4,4,Calle Pililla,40.3363609313965,-3.23655676841736,C2,http://www.crtm.es,0,,Europe/Madrid,2
par_8_09453,09453,VÍA COMPLUTENSE-SAN BERNARDO,Calle Vía Complutense 12,12,Calle Vía Complutense,40.4840410530149,-3.36985660620449,B3,http://www.crtm.es,0,,Europe/Madrid,2
par_8_09464,09464,VÍA COMPLUTENSE-SAN BERNARDO,Calle Vía Complutense 12,12,Calle Vía Complutense,40.4840949544933,-3.36990409684527,B3,http://www.crtm.es,0,,Europe/Madrid,2
par_8_09530,09530,VALVERDE DE ALCALÁ-CARRETERA DE TORRES,Carretera M-225 (Torres de la Alameda) 10800,225,Carretera M-225 (Torres de la Alameda),40.4180183410645,-3.2998104095459,C1,http://www.crtm.es,0,,Europe/Madrid,2
par_8_09668,09668,MADRID-REAL,Calle Madrid 1,1,Calle Madrid,40.407787322998,-3.36460876464844,C1,http://www.crtm.es,0,,Europe/Madrid,2
par_8_09737,09737,CARRETERA M219-URB.EUROVILLAS,Avenida Atenas 65,65,Avenida Atenas,40.3646202087402,-3.26721954345703,C2,http://www.crtm.es,0,,Europe/Madrid,2
par_8_09741,09741,RONDA HISPANOAMERICANA-PASEO MADRID,Ronda Hispano-Americana 185,185,Ronda Hispano-Americana,40.3490219116211,-3.26851201057434,C2,http://www.crtm.es,0,,Europe/Madrid,2
par_8_09742,09742,RONDA HISPANOAMERICANA-NUEVE,Ronda Hispano-Americana 133,133,Ronda Hispano-Americana,40.3507804870605,-3.26066470146179,C2,http://www.crtm.es,0,,Europe/Madrid,2
par_8_09743,09743,RONDA HISPANOAMERICANA-CINCO,Ronda Hispano-Americana 55,55,Ronda Hispano-Americana,40.3533897399902,-3.24889874458313,C2,http://www.crtm.es,0,,Europe/Madrid,2
par_8_09744,09744,RONDA HISPANOAMERICANA-CASA JUVENTUD,Ronda Hispano-Americana 1,1,Ronda Hispano-Americana,40.359977722168,-3.24309325218201,C2,http://www.crtm.es,0,,Europe/Madrid,2
par_8_09745,09745,MAYOR-PLAZA VILLA,Calle Mayor 28,28,Calle Mayor,40.368724822998,-3.22189950942993,C2,http://www.crtm.es,0,,Europe/Madrid,2
par_8_09766,09766,GRAN VÍA-ESTACIÓN DE SERVICIO,Calle Gran Vía 44,44,Calle Gran Vía,40.2826614379883,-3.20699548721313,C2,http://www.crtm.es,0,,Europe/Madrid,2
par_8_09768,09768,AVENIDA MADRID-SAN ISIDRO,Avenida de José Antonio 3,3,Avenida de José Antonio,40.3266487121582,-3.18348097801209,C2,http://www.crtm.es,0,,Europe/Madrid,2
par_8_09769,09769,AVENIDA MADRID-VIRGEN DEL ROSARIO,Avenida de José Antonio 4,4,Avenida de José Antonio,40.3265838623047,-3.18371629714966,C2,http://www.crtm.es,0,,Europe/Madrid,2
par_8_09770,09770,CARRETERA M204-URB.EL MIRADOR DE BAZTÁN,Carretera M-204 (Valverde) 28000,204,Carretera M-204 (Valverde),40.3751831054688,-3.24875497817993,C2,http://www.crtm.es,0,,Europe/Madrid,2
par_8_09771,09771,CARRETERA M204-URB.EL MIRADOR DE BAZTÁN,Urb Mirador 54,54,Urb Mirador,40.375904083252,-3.24902868270874,C2,http://www.crtm.es,0,,Europe/Madrid,2
par_8_09772,09772,CARRETERA M204-TRANSFORMADOR,Carretera a Villar del Olmo 2,2,Carretera a Villar del Olmo,40.364429473877,-3.24341535568237,C2,http://www.crtm.es,0,,Europe/Madrid,2
par_8_09773,09773,CARRETERA M-219-TRAVESÍAJOSÉ CHURRIGUERA,Carretera de M-219 (Pozuelo del Rey) 15500,219,Carretera de M-219 (Pozuelo del Rey),40.3657417297363,-3.24429178237915,C2,http://www.crtm.es,0,,Europe/Madrid,2
par_8_09774,09774,TRAVESÍAJOSÉ CHURRIGUERA-IGLESIA,Travesía José de Churriguera 2,2,Travesía José de Churriguera,40.3661499023438,-3.24409294128418,C2,http://www.crtm.es,0,,Europe/Madrid,2
par_8_09776,09776,PLAZA VILLA-MAYOR,Plaza de la Villa 11,11,Plaza de la Villa,40.368824005127,-3.22191143035889,C2,http://www.crtm.es,0,,Europe/Madrid,2
par_8_10282,10282,CARRETERA M215-COMUNIDAD TERAPÉUTICA,Carretera M-215 (De M-204 al Límite Provincial por Ambite) 800,215,Carretera M-215 (De M-204 al Límite Provincial por Ambite),40.3208427429199,-3.18945646286011,C2,http://www.crtm.es,0,,Europe/Madrid,2
par_8_10831,10831,RONDA HISPANOAMERICANA-RONDA MANCHESTER,Ronda Hispano-Americana 270,270,Ronda Hispano-Americana,40.3570137023926,-3.27145266532898,C2,http://www.crtm.es,0,,Europe/Madrid,2
par_8_11568,11568,CARRETERA M204-URB.MONTEACEVEDO,Carretera M-204 (Valverde) 29600,204,Carretera M-204 (Valverde),40.3875465393066,-3.259934425354,C2,http://www.crtm.es,0,,Europe/Madrid,2
par_8_11898,11898,CARRETERA M215-MOLINO DEL PUENTE,Carretera de Madrid-Albares 20,20,Carretera de Madrid-Albares,40.3271675109863,-3.17979788780212,C2,http://www.crtm.es,0,,Europe/Madrid,2
par_8_11899,11899,CARRETERA M215-MOLINO DEL PUENTE,Calle de la Estación 21,21,Calle de la Estación,40.3273277282715,-3.17982172966003,C2,http://www.crtm.es,0,,Europe/Madrid,2
par_8_12037,12037,CARRETERA M204-CAMINO BELLAESCUSA,Carretera M-204 (Perales-Alvares) 16500,204,Carretera M-204 (Perales-Alvares),40.2950172424316,-3.19938516616821,C2,http://www.crtm.es,0,,Europe/Madrid,2
par_8_12038,12038,CARRETERA M204-CAMINO BELLAESCUSA,Carretera M-204 (Perales-Alvares) 16500,204,Carretera M-204 (Perales-Alvares),40.2950057983398,-3.19913816452026,C2,http://www.crtm.es,0,,Europe/Madrid,2
par_8_12415,12415,PASEO PASTRANA-RÍO TER,Paseo de Pastrana 52,52,Paseo de Pastrana,40.4675763705677,-3.36588545011802,B3,http://www.crtm.es,0,,Europe/Madrid,2
par_8_12416,12416,PASEO PASTRANA-BOLARQUE,Paseo de Pastrana 34,34,Paseo de Pastrana,40.4709272257589,-3.36603339659355,B3,http://www.crtm.es,0,,Europe/Madrid,2
par_8_16903,16903,CARRETERA M215-COMUNIDAD TERAPÉUTICA,Carretera M-215 (De M-204 al Límite Provincial por Ambite) 800,215,Carretera M-215 (De M-204 al Límite Provincial por Ambite),40.320987701416,-3.18951559066772,C2,http://www.crtm.es,0,,Europe/Madrid,2
par_8_16904,16904,CARRETERA M204-URB.MONTEACEVEDO,Carretera M-204 (Valverde) 29600,204,Carretera M-204 (Valverde),40.3876113891602,-3.25975799560547,C2,http://www.crtm.es,0,,Europe/Madrid,2
par_8_17641,17641,MAYOR-PINTOR ÁLVARO DELGADO,Calle Mayor 69,69,Calle Mayor,40.3675689697266,-3.21928071975708,C2,http://www.crtm.es,0,,Europe/Madrid,2
par_8_17642,17642,MAYOR-PINTOR ÁLVARO DELGADO,Calle Mayor 69,69,Calle Mayor,40.3675231933594,-3.21941018104553,C2,http://www.crtm.es,0,,Europe/Madrid,2
par_8_17718,17718,RONDA HISPANOAMERICANA-COMUNIDAD EUROPEA,Ronda Hispano-Americana 213,213,Ronda Hispano-Americana,40.3500938415527,-3.27276730537415,C2,http://www.crtm.es,0,,Europe/Madrid,2
par_8_17719,17719,RONDA HISPANOAMERICANA-COMUNIDAD EUROPEA,Ronda Hispano-Americana 200,200,Ronda Hispano-Americana,40.3503265380859,-3.27275633811951,C2,http://www.crtm.es,0,,Europe/Madrid,2
par_8_18805,18805,PASEO PASTRANA-RONDA FISCAL,Paseo de Pastrana 35,35,Paseo de Pastrana,40.4747641038143,-3.36632556414709,B3,http://www.crtm.es,0,,Europe/Madrid,0
par_8_19008,19008,RONDA HISPANOAMERICANA-SIETE,Ronda Hispano-Americana 88,88,Ronda Hispano-Americana,40.3522262573242,-3.25455856323242,C2,http://www.crtm.es,0,,Europe/Madrid,0
par_8_19009,19009,RONDA HISPANOAMERICANA-SIETE,Ronda Hispano-Americana 92,92,Ronda Hispano-Americana,40.3520164489746,-3.25517010688782,C2,http://www.crtm.es,0,,Europe/Madrid,0
par_8_19218,19218,RONDA HISPANOAMERICANA-RONDA MANCHESTER,Ronda Hispano-Americana 270,270,Ronda Hispano-Americana,40.3568725585938,-3.27128720283508,C2,http://www.crtm.es,0,,Europe/Madrid,0
par_8_19891,19891,TORRELAGUNA-GLORIETA CHORRILLO,Calle Torrelaguna 27,27,Calle Torrelaguna,40.4887063918936,-3.37305628301206,B3,http://www.crtm.es,0,,Europe/Madrid,0
par_8_20930,20930,AMBITE-URB.SIERRA TAJUÑA,camino de la Estación 1,1,Cmno de la Estación,40.3270530700684,-3.17721962928772,C2,http://www.crtm.es,0,,Europe/Madrid,0
par_8_06878,06878,RONDA MANCHESTER-RONDA HISPANOAMERICANA,Calle Ronda de Manchester 166,166,Calle Ronda de Manchester,40.3559608459473,-3.27130699157715,C2,http://www.crtm.es,0,,Europe/Madrid,2
par_8_06903,06903,AVENIDA FRONTERAS-MADRID,Avenida Fronteras 16,16,Avenida Fronteras,40.4608917236328,-3.48375153541565,B2,http://www.crtm.es,0,,Europe/Madrid,2
par_8_07237,07237,CARRETERA LOECHES-JOAQUÍN BLUME,Carretera Loeches 8700,8700,Carretera Loeches,40.4473075866699,-3.46792316436768,B2,http://www.crtm.es,0,,Europe/Madrid,2
par_8_07238,07238,CARRETERA LOECHES-JOAQUÍN BLUME,Carretera Loeches 8700,8700,Carretera Loeches,40.447624206543,-3.46787810325623,B2,http://www.crtm.es,0,,Europe/Madrid,2
par_8_07275,07275,AVENIDA CONSTITUCIÓN-PLAZA FUENTE AMARGA,Avenida de la Constitución 10,10,Avenida de la Constitución,40.3850860595703,-3.41254305839539,B3,http://www.crtm.es,0,,Europe/Madrid,2
par_8_07313,07313,AVENIDA AMÉRICA-CANILLEJAS,Avenida de Logroño 4,4,Avenida de Logroño,40.4500885009766,-3.60798239707947,A,http://www.crtm.es,0,,Europe/Madrid,2
par_8_09003,09003,RONDA SANTASUSANA-MAYOR,Ronda Santa Susana 1,1,Ronda Santa Susana,40.4033317565918,-3.36066031455994,C1,http://www.crtm.es,0,,Europe/Madrid,2
par_8_09158,09158,COMUNIDAD EUROPEA-AVENIDA LUXEMBURGO,Calle de la Comunidad Europea 46,46,Calle de la Comunidad Europea,40.3545150756836,-3.26615500450134,C2,http://www.crtm.es,0,,Europe/Madrid,2
par_8_09159,09159,COMUNIDAD EUROPEA-URB.EUROVILLAS,Calle de la Comunidad Europea 4,4,Calle de la Comunidad Europea,40.3622550964355,-3.26196908950806,C2,http://www.crtm.es,0,,Europe/Madrid,2
par_8_09170,09170,REAL-NUEVA,Calle Nueva 1,1,Calle Nueva,40.3654823303223,-3.32120203971863,C1,http://www.crtm.es,0,,Europe/Madrid,2
par_8_09666,09666,PASEO LOS POZOS-MADRID,Paseo de los Pozos 5,5,Paseo de los Pozos,40.4067115783691,-3.36515688896179,C1,http://www.crtm.es,0,,Europe/Madrid,2
par_8_09736,09736,REAL-NUEVA,Calle del Real 8500,8500,Calle del Real,40.3652229309082,-3.32041168212891,C1,http://www.crtm.es,0,,Europe/Madrid,2
par_8_09738,09738,NUEVE-AVENIDA BRUSELAS,Calle Nueve 3,3,Calle Nueve,40.3622627258301,-3.26174545288086,C2,http://www.crtm.es,0,,Europe/Madrid,2
par_8_09739,09739,COMUNIDAD EUROPEA-CENTRO COMERCIAL,Calle de la Comunidad Europea 43,43,Calle de la Comunidad Europea,40.3553428649902,-3.26541638374329,C2,http://www.crtm.es,0,,Europe/Madrid,2
par_8_09740,09740,RONDA MANCHESTER-RONDA HISPANOAMERICANA,Calle Ronda de Manchester 166,166,Calle Ronda de Manchester,40.3560600280762,-3.27129554748535,C2,http://www.crtm.es,0,,Europe/Madrid,2
par_8_10456,10456,CARRETERA M206-POLÍGONOIND.EL CABALLO,Carretera de M-206 (Loeches-Torrejón de Ardoz) 800,206,Carretera de M-206 (Loeches-Torrejón de Ardoz),40.3947296142578,-3.41361546516418,B3,http://www.crtm.es,0,,Europe/Madrid,2
par_8_10835,10835,CANTO-AVENIDA CONSTITUCIÓN,Calle Canto 5,5,Calle Canto,40.4550590515137,-3.48402810096741,B2,http://www.crtm.es,0,,Europe/Madrid,2
par_8_10836,10836,PASEO LOS POZOS-CONCEPCIÓN,Paseo de los Pozos 9 B,9B,Paseo de los Pozos,40.4064254760742,-3.36521410942078,C1,http://www.crtm.es,0,,Europe/Madrid,2
par_8_12041,12041,AVENIDA CONSTITUCIÓN-VIRGEN DE LAS ANGUSTIAS,Avenida de la Constitución 8,8,Avenida de la Constitución,40.3841781616211,-3.41130065917969,B3,http://www.crtm.es,0,,Europe/Madrid,2
par_8_12042,12042,CARRETERA M219-RESIDENCIA TERCERA EDAD,Carretera de Nuevo Baztán 10600,10600,Carretera de Nuevo Baztán,40.3692054748535,-3.29610729217529,C1,http://www.crtm.es,0,,Europe/Madrid,2
par_8_12043,12043,CARRETERA M219-RESIDENCIA TERCERA EDAD,Carretera de Nuevo Baztán SN,,Carretera de Nuevo Baztán,40.3694229125977,-3.29621434211731,C1,http://www.crtm.es,0,,Europe/Madrid,2
par_8_12049,12049,AVENIDA CONSTITUCIÓN-VIRGEN DE LAS ANGUSTIAS,Avenida de la Constitución 43,43,Avenida de la Constitución,40.3845367431641,-3.41202139854431,B3,http://www.crtm.es,0,,Europe/Madrid,2
